[
    {
        "name": "Burgerlab",
        "id": "0x471ecda8944497d9:0xbe46b72e2003980",
        "latitude": 52.223554,
        "longitude": 21.016981,
        "url": "https://www.google.com/maps/place/Burgerlab/data=!4m7!3m6!1s0x471ecda8944497d9:0xbe46b72e2003980!8m2!3d52.223554!4d21.016981!16s%2Fg%2F11shkg4h8q!19sChIJ2ZdElKjNHkcRgDkA4nJr5As?authuser=0&hl=pl&rclk=1"
    },
    {
        "name": "Mandala Sienna",
        "id": "0x471ecd0da2303429:0x466c21c46f98fbe3",
        "latitude": 52.2297964,
        "longitude": 20.9920324,
        "url": "https://www.google.com/maps/place/Mandala+Sienna/data=!4m7!3m6!1s0x471ecd0da2303429:0x466c21c46f98fbe3!8m2!3d52.2297964!4d20.9920324!16s%2Fg%2F11xh9n4cwm!19sChIJKTQwog3NHkcR4_uYb8QhbEY?authuser=0&hl=pl&rclk=1"
    },
    {
        "name": "Miss Kimchi",
        "id": "0x471ecc85d2f64dc3:0xe35f891e106337b4",
        "latitude": 52.230004,
        "longitude": 20.9940694,
        "url": "https://www.google.com/maps/place/Miss+Kimchi/data=!4m7!3m6!1s0x471ecc85d2f64dc3:0xe35f891e106337b4!8m2!3d52.230004!4d20.9940694!16s%2Fg%2F11bw65y7b9!19sChIJw0320oXMHkcRtDdjEB6JX-M?authuser=0&hl=pl&rclk=1"
    },
    {
        "name": "SUSHI tu Thai Restaurant",
        "id": "0x471ecd9dc2951d9f:0x2dc5aae390be77c7",
        "latitude": 52.229964,
        "longitude": 20.9931478,
        "url": "https://www.google.com/maps/place/SUSHI+tu+Thai+Restaurant/data=!4m7!3m6!1s0x471ecd9dc2951d9f:0x2dc5aae390be77c7!8m2!3d52.229964!4d20.9931478!16s%2Fg%2F11lfrljh2t!19sChIJnx2Vwp3NHkcRx3e-kOOqxS0?authuser=0&hl=pl&rclk=1"
    },
    {
        "name": "Restauracja Gruzińska Madloba",
        "id": "0x471ecd0026923d3d:0x879ef48ebd8b5f8b",
        "latitude": 52.2303631,
        "longitude": 20.9932631,
        "url": "https://www.google.com/maps/place/Restauracja+Gruzi%C5%84ska+Madloba/data=!4m7!3m6!1s0x471ecd0026923d3d:0x879ef48ebd8b5f8b!8m2!3d52.2303631!4d20.9932631!16s%2Fg%2F11w95vv_15!19sChIJPT2SJgDNHkcRi1-LvY70noc?authuser=0&hl=pl&rclk=1"
    },
    {
        "name": "Pełną Parą na Siennej",
        "id": "0x471ecc8fcb8f9c81:0x6b7a514922c70ad",
        "latitude": 52.2305578,
        "longitude": 20.9943916,
        "url": "https://www.google.com/maps/place/Pe%C5%82n%C4%85+Par%C4%85+na+Siennej/data=!4m7!3m6!1s0x471ecc8fcb8f9c81:0x6b7a514922c70ad!8m2!3d52.2305578!4d20.9943916!16s%2Fg%2F11b73pk033!19sChIJgZyPy4_MHkcRrXAskhSltwY?authuser=0&hl=pl&rclk=1"
    },
    {
        "name": "Sushi Żelazna",
        "id": "0x471ecc8fe80dc1ab:0xe175754026ea5768",
        "latitude": 52.2302913,
        "longitude": 20.9931525,
        "url": "https://www.google.com/maps/place/Sushi+%C5%BBelazna/data=!4m7!3m6!1s0x471ecc8fe80dc1ab:0xe175754026ea5768!8m2!3d52.2302913!4d20.9931525!16s%2Fg%2F1tgnvztl!19sChIJq8EN6I_MHkcRaFfqJkB1deE?authuser=0&hl=pl&rclk=1"
    },
    {
        "name": "BIN BIN - Asian Fusion Restaurant",
        "id": "0x471ecda1993a45fb:0x6e6b13a3103c53d5",
        "latitude": 52.2311621,
        "longitude": 20.9956831,
        "url": "https://www.google.com/maps/place/BIN+BIN+-+Asian+Fusion+Restaurant/data=!4m7!3m6!1s0x471ecda1993a45fb:0x6e6b13a3103c53d5!8m2!3d52.2311621!4d20.9956831!16s%2Fg%2F11q4m3ws_6!19sChIJ-0U6maHNHkcR1VM8EKMTa24?authuser=0&hl=pl&rclk=1"
    },
    {
        "name": "MOXO Restaurant",
        "id": "0x471ecdfea55dbd73:0x5426677ad137d041",
        "latitude": 52.232017,
        "longitude": 20.9916885,
        "url": "https://www.google.com/maps/place/MOXO+Restaurant/data=!4m7!3m6!1s0x471ecdfea55dbd73:0x5426677ad137d041!8m2!3d52.232017!4d20.9916885!16s%2Fg%2F11tf64n3h0!19sChIJc71dpf7NHkcRQdA30XpnJlQ?authuser=0&hl=pl&rclk=1"
    },
    {
        "name": "Pańska 85",
        "id": "0x471ecc8556b6edd1:0x6aa48efdd7328551",
        "latitude": 52.2308333,
        "longitude": 20.9905556,
        "url": "https://www.google.com/maps/place/Pa%C5%84ska+85/data=!4m7!3m6!1s0x471ecc8556b6edd1:0x6aa48efdd7328551!8m2!3d52.2308333!4d20.9905556!16s%2Fg%2F11c2p0_f7z!19sChIJ0e22VoXMHkcRUYUy1_2OpGo?authuser=0&hl=pl&rclk=1"
    },
    {
        "name": "Restauracja Holiday Inn Warsaw City Centre",
        "id": "0x471ecd8471daf0bb:0x1787794507b9ce24",
        "latitude": 52.2295887,
        "longitude": 20.9942881,
        "url": "https://www.google.com/maps/place/Restauracja+Holiday+Inn+Warsaw+City+Centre/data=!4m7!3m6!1s0x471ecd8471daf0bb:0x1787794507b9ce24!8m2!3d52.2295887!4d20.9942881!16s%2Fg%2F11g1klrw1d!19sChIJu_DacYTNHkcRJM65B0V5hxc?authuser=0&hl=pl&rclk=1"
    },
    {
        "name": "Hello Vietnam Pańska",
        "id": "0x471ecd1941022141:0xdcb9a201dca330cf",
        "latitude": 52.2318084,
        "longitude": 20.9951212,
        "url": "https://www.google.com/maps/place/Hello+Vietnam+Pa%C5%84ska/data=!4m7!3m6!1s0x471ecd1941022141:0xdcb9a201dca330cf!8m2!3d52.2318084!4d20.9951212!16s%2Fg%2F11nxrmpks5!19sChIJQSECQRnNHkcRzzCj3AGiudw?authuser=0&hl=pl&rclk=1"
    },
    {
        "name": "TURAN HALAL RESTAURANT",
        "id": "0x471ecdcea7502b41:0x4da30b7a2ffdb705",
        "latitude": 52.2317862,
        "longitude": 20.9950001,
        "url": "https://www.google.com/maps/place/TURAN+HALAL+RESTAURANT/data=!4m7!3m6!1s0x471ecdcea7502b41:0x4da30b7a2ffdb705!8m2!3d52.2317862!4d20.9950001!16s%2Fg%2F11td031yr6!19sChIJQStQp87NHkcRBbf9L3oLo00?authuser=0&hl=pl&rclk=1"
    },
    {
        "name": "Kresowe smaki Valentyny",
        "id": "0x471ecc90194feee9:0xed04b8e08e5b69a2",
        "latitude": 52.2297246,
        "longitude": 20.9915632,
        "url": "https://www.google.com/maps/place/Kresowe+smaki+Valentyny/data=!4m7!3m6!1s0x471ecc90194feee9:0xed04b8e08e5b69a2!8m2!3d52.2297246!4d20.9915632!16s%2Fg%2F11c2kmlln4!19sChIJ6e5PGZDMHkcRomlbjuC4BO0?authuser=0&hl=pl&rclk=1"
    },
    {
        "name": "FOOD TOWN w Fabryce Norblina - Restauracja - Street food - Bar - Eventy",
        "id": "0x471ecd7b65ae8ae9:0x6b9b3fd0fe49d7a0",
        "latitude": 52.2320716,
        "longitude": 20.990027,
        "url": "https://www.google.com/maps/place/FOOD+TOWN+w+Fabryce+Norblina+-+Restauracja+-+Street+food+-+Bar+-+Eventy/data=!4m7!3m6!1s0x471ecd7b65ae8ae9:0x6b9b3fd0fe49d7a0!8m2!3d52.2320716!4d20.990027!16s%2Fg%2F11qg926dch!19sChIJ6YquZXvNHkcRoNdJ_tA_m2s?authuser=0&hl=pl&rclk=1"
    },
    {
        "name": "Chmielarnia",
        "id": "0x471ecc8e4b6b7823:0x34bffd4864cd4413",
        "latitude": 52.2310961,
        "longitude": 20.9955585,
        "url": "https://www.google.com/maps/place/Chmielarnia/data=!4m7!3m6!1s0x471ecc8e4b6b7823:0x34bffd4864cd4413!8m2!3d52.2310961!4d20.9955585!16s%2Fg%2F12ml2ytc5!19sChIJI3hrS47MHkcRE0TNZEj9vzQ?authuser=0&hl=pl&rclk=1"
    },
    {
        "name": "Bocca Ristorante • Pizzeria",
        "id": "0x471ecdfe418144bd:0x4737bd184e35e90b",
        "latitude": 52.231974,
        "longitude": 20.9907126,
        "url": "https://www.google.com/maps/place/Bocca+Ristorante+%E2%80%A2+Pizzeria/data=!4m7!3m6!1s0x471ecdfe418144bd:0x4737bd184e35e90b!8m2!3d52.231974!4d20.9907126!16s%2Fg%2F11rtp8ygq1!19sChIJvUSBQf7NHkcRC-k1Thi9N0c?authuser=0&hl=pl&rclk=1"
    },
    {
        "name": "Restauracja Restro",
        "id": "0x471ecc8fac9d5721:0x6f09201601e35eba",
        "latitude": 52.2319441,
        "longitude": 20.9957299,
        "url": "https://www.google.com/maps/place/Restauracja+Restro/data=!4m7!3m6!1s0x471ecc8fac9d5721:0x6f09201601e35eba!8m2!3d52.2319441!4d20.9957299!16s%2Fg%2F1hc78ly14!19sChIJIVedrI_MHkcRul7jARYgCW8?authuser=0&hl=pl&rclk=1"
    },
    {
        "name": "WANDAL",
        "id": "0x471ecda2600cf9b7:0xddf4bcb80eb8872c",
        "latitude": 52.2299413,
        "longitude": 20.989348,
        "url": "https://www.google.com/maps/place/WANDAL/data=!4m7!3m6!1s0x471ecda2600cf9b7:0xddf4bcb80eb8872c!8m2!3d52.2299413!4d20.989348!16s%2Fg%2F11yfzj9p_r!19sChIJt_kMYKLNHkcRLIe4Dri89N0?authuser=0&hl=pl&rclk=1"
    },
    {
        "name": "Paradiso Kitchen & Cocktails",
        "id": "0x471ecd1e8695a3d9:0x41ce84b12aba8ede",
        "latitude": 52.2320818,
        "longitude": 20.9911226,
        "url": "https://www.google.com/maps/place/Paradiso+Kitchen+%26+Cocktails/data=!4m7!3m6!1s0x471ecd1e8695a3d9:0x41ce84b12aba8ede!8m2!3d52.2320818!4d20.9911226!16s%2Fg%2F11t1h2vl5n!19sChIJ2aOVhh7NHkcR3o66KrGEzkE?authuser=0&hl=pl&rclk=1"
    },
    {
        "name": "Bar Mleczny Mleczarnia Sienna",
        "id": "0x471ecc8fd99e227b:0x9aee845b853d1a29",
        "latitude": 52.2300212,
        "longitude": 20.993457,
        "url": "https://www.google.com/maps/place/Bar+Mleczny+Mleczarnia+Sienna/data=!4m7!3m6!1s0x471ecc8fd99e227b:0x9aee845b853d1a29!8m2!3d52.2300212!4d20.993457!16s%2Fg%2F1pp2vhmpl!19sChIJeyKe2Y_MHkcRKRo9hVuE7po?authuser=0&hl=pl&rclk=1"
    },
    {
        "name": "Blue Cactus | Fabryka Norblina",
        "id": "0x471ecde29bd5424b:0x9871a5c9b65335c6",
        "latitude": 52.2321227,
        "longitude": 20.9912737,
        "url": "https://www.google.com/maps/place/Blue+Cactus+%7C+Fabryka+Norblina/data=!4m7!3m6!1s0x471ecde29bd5424b:0x9871a5c9b65335c6!8m2!3d52.2321227!4d20.9912737!16s%2Fg%2F11s32wq9jk!19sChIJS0LVm-LNHkcRxjVTtsmlcZg?authuser=0&hl=pl&rclk=1"
    },
    {
        "name": "Madame Thy Asian Cuisine & Bar",
        "id": "0x471ecd3120167b83:0xd63f0f9144666028",
        "latitude": 52.2325373,
        "longitude": 20.9893892,
        "url": "https://www.google.com/maps/place/Madame+Thy+Asian+Cuisine+%26+Bar/data=!4m7!3m6!1s0x471ecd3120167b83:0xd63f0f9144666028!8m2!3d52.2325373!4d20.9893892!16s%2Fg%2F11yghbx81f!19sChIJg3sWIDHNHkcRKGBmRJEPP9Y?authuser=0&hl=pl&rclk=1"
    },
    {
        "name": "Buena Vista Social Food",
        "id": "0x471ecd4c2c8222dd:0xea54b81484aea2eb",
        "latitude": 52.2320171,
        "longitude": 20.9905118,
        "url": "https://www.google.com/maps/place/Buena+Vista+Social+Food/data=!4m7!3m6!1s0x471ecd4c2c8222dd:0xea54b81484aea2eb!8m2!3d52.2320171!4d20.9905118!16s%2Fg%2F11s0wck4bc!19sChIJ3SKCLEzNHkcR66KuhBS4VOo?authuser=0&hl=pl&rclk=1"
    },
    {
        "name": "Baguette Mi",
        "id": "0x471ecda28ad2c495:0xa3656248cfa3df39",
        "latitude": 52.2315583,
        "longitude": 20.9987895,
        "url": "https://www.google.com/maps/place/Baguette+Mi/data=!4m7!3m6!1s0x471ecda28ad2c495:0xa3656248cfa3df39!8m2!3d52.2315583!4d20.9987895!16s%2Fg%2F11nw9tlkl5!19sChIJlcTSiqLNHkcROd-jz0hiZaM?authuser=0&hl=pl&rclk=1"
    },
    {
        "name": "Pita Bros Fabryka Norblina",
        "id": "0x471ecdfe62119a7d:0xde13ab4de79e6f46",
        "latitude": 52.2321488,
        "longitude": 20.9906254,
        "url": "https://www.google.com/maps/place/Pita+Bros+Fabryka+Norblina/data=!4m7!3m6!1s0x471ecdfe62119a7d:0xde13ab4de79e6f46!8m2!3d52.2321488!4d20.9906254!16s%2Fg%2F11sjwp46v3!19sChIJfZoRYv7NHkcRRm-e502rE94?authuser=0&hl=pl&rclk=1"
    },
    {
        "name": "SzaurMafia: Ukrainian street food restaurant | Warszawa",
        "id": "0x471ecda0d49198d7:0x44b9ede710fe4faf",
        "latitude": 52.2329723,
        "longitude": 20.9908705,
        "url": "https://www.google.com/maps/place/SzaurMafia:+Ukrainian+street+food+restaurant+%7C+Warszawa/data=!4m7!3m6!1s0x471ecda0d49198d7:0x44b9ede710fe4faf!8m2!3d52.2329723!4d20.9908705!16s%2Fg%2F11v9jbfjz6!19sChIJ15iR1KDNHkcRr0_-EOftuUQ?authuser=0&hl=pl&rclk=1"
    },
    {
        "name": "Munja Grzybowska 43",
        "id": "0x471ecc85e8807ccf:0x4ff3c0276f8a93c6",
        "latitude": 52.2347467,
        "longitude": 20.9919811,
        "url": "https://www.google.com/maps/place/Munja+Grzybowska+43/data=!4m7!3m6!1s0x471ecc85e8807ccf:0x4ff3c0276f8a93c6!8m2!3d52.2347467!4d20.9919811!16s%2Fg%2F11dyznyq7n!19sChIJz3yA6IXMHkcRxpOKbyfA808?authuser=0&hl=pl&rclk=1"
    },
    {
        "name": "Restauracja Primitivo Kuchnia i Wino - kuchnia śródziemnomorska Warszawa",
        "id": "0x471ecdc94ec04b1f:0xf0e7b1a601a1f505",
        "latitude": 52.235268,
        "longitude": 20.992115,
        "url": "https://www.google.com/maps/place/Restauracja+Primitivo+Kuchnia+i+Wino+-+kuchnia+%C5%9Br%C3%B3dziemnomorska+Warszawa/data=!4m7!3m6!1s0x471ecdc94ec04b1f:0xf0e7b1a601a1f505!8m2!3d52.235268!4d20.992115!16s%2Fg%2F11vprytzpx!19sChIJH0vATsnNHkcRBfWhAaax5_A?authuser=0&hl=pl&rclk=1"
    },
    {
        "name": "Savoré restaurant • cocktail bar",
        "id": "0x471ecd6ca6973eab:0x57acca4fdbc5ba63",
        "latitude": 52.233984,
        "longitude": 20.9896694,
        "url": "https://www.google.com/maps/place/Savor%C3%A9+restaurant+%E2%80%A2+cocktail+bar/data=!4m7!3m6!1s0x471ecd6ca6973eab:0x57acca4fdbc5ba63!8m2!3d52.233984!4d20.9896694!16s%2Fg%2F11t46md998!19sChIJqz6XpmzNHkcRY7rF20_KrFc?authuser=0&hl=pl&rclk=1"
    },
    {
        "name": "Wałek Warszawski",
        "id": "0x471ecd98af9bfdeb:0x2ac98c1c4da75aba",
        "latitude": 52.2330038,
        "longitude": 20.9910516,
        "url": "https://www.google.com/maps/place/Wa%C5%82ek+Warszawski/data=!4m7!3m6!1s0x471ecd98af9bfdeb:0x2ac98c1c4da75aba!8m2!3d52.2330038!4d20.9910516!16s%2Fg%2F11q37d61l3!19sChIJ6_2br5jNHkcRulqnTRyMySo?authuser=0&hl=pl&rclk=1"
    },
    {
        "name": "Baila Show&Dining",
        "id": "0x471ecda87beb3c5b:0xc9ab537b29980992",
        "latitude": 52.2344789,
        "longitude": 20.9876817,
        "url": "https://www.google.com/maps/place/Baila+Show%26Dining/data=!4m7!3m6!1s0x471ecda87beb3c5b:0xc9ab537b29980992!8m2!3d52.2344789!4d20.9876817!16s%2Fg%2F11rgb25srv!19sChIJWzzre6jNHkcRkgmYKXtTq8k?authuser=0&hl=pl&rclk=1"
    },
    {
        "name": "Casa Ristoranti",
        "id": "0x471ecc8f3ac76b23:0x660c5c6c9d3113fb",
        "latitude": 52.2338114,
        "longitude": 20.9964903,
        "url": "https://www.google.com/maps/place/Casa+Ristoranti/data=!4m7!3m6!1s0x471ecc8f3ac76b23:0x660c5c6c9d3113fb!8m2!3d52.2338114!4d20.9964903!16s%2Fg%2F11dxl9jg03!19sChIJI2vHOo_MHkcR-xMxnWxcDGY?authuser=0&hl=pl&rclk=1"
    },
    {
        "name": "Munja Browary Warszawskie",
        "id": "0x471ecd03d675699d:0xac86a1fe1f582d14",
        "latitude": 52.2345263,
        "longitude": 20.9872126,
        "url": "https://www.google.com/maps/place/Munja+Browary+Warszawskie/data=!4m7!3m6!1s0x471ecd03d675699d:0xac86a1fe1f582d14!8m2!3d52.2345263!4d20.9872126!16s%2Fg%2F11r9vb_k4q!19sChIJnWl11gPNHkcRFC1YH_6hhqw?authuser=0&hl=pl&rclk=1"
    },
    {
        "name": "VIWOK 58",
        "id": "0x471ecdd3b07dcdef:0x986c7e62177ad3a9",
        "latitude": 52.2350248,
        "longitude": 20.9909458,
        "url": "https://www.google.com/maps/place/VIWOK+58/data=!4m7!3m6!1s0x471ecdd3b07dcdef:0x986c7e62177ad3a9!8m2!3d52.2350248!4d20.9909458!16s%2Fg%2F11w7k39ppb!19sChIJ7819sNPNHkcRqdN6F2J-bJg?authuser=0&hl=pl&rclk=1"
    },
    {
        "name": "Niedaleko Damaszku - Vegan restaurant",
        "id": "0x471ecc8f35fcb981:0x42b1ad8167790c78",
        "latitude": 52.2345886,
        "longitude": 20.9962596,
        "url": "https://www.google.com/maps/place/Niedaleko+Damaszku+-+Vegan+restaurant/data=!4m7!3m6!1s0x471ecc8f35fcb981:0x42b1ad8167790c78!8m2!3d52.2345886!4d20.9962596!16s%2Fg%2F11dft7_2kb!19sChIJgbn8NY_MHkcReAx5Z4GtsUI?authuser=0&hl=pl&rclk=1"
    },
    {
        "name": "Kawiarnia La Lucy",
        "id": "0x471ecdd895ce96eb:0xa6b5437c79cdc918",
        "latitude": 52.2333651,
        "longitude": 20.9944348,
        "url": "https://www.google.com/maps/place/Kawiarnia+La+Lucy/data=!4m7!3m6!1s0x471ecdd895ce96eb:0xa6b5437c79cdc918!8m2!3d52.2333651!4d20.9944348!16s%2Fg%2F11gxmtnc8k!19sChIJ65bOldjNHkcRGMnNeXxDtaY?authuser=0&hl=pl&rclk=1"
    },
    {
        "name": "Royal Restaurant - polska kuchnia",
        "id": "0x471ecd263ffa770b:0x2d5e00c22f6e910c",
        "latitude": 52.2360168,
        "longitude": 21.0086082,
        "url": "https://www.google.com/maps/place/Royal+Restaurant+-+polska+kuchnia/data=!4m7!3m6!1s0x471ecd263ffa770b:0x2d5e00c22f6e910c!8m2!3d52.2360168!4d21.0086082!16s%2Fg%2F11vz0qtl99!19sChIJC3f6PybNHkcRDJFuL8IAXi0?authuser=0&hl=pl&rclk=1"
    },
    {
        "name": "TIKHARI MODERN GEORGIA",
        "id": "0x471ecd3e80cbcd93:0x679425bdac8b22b3",
        "latitude": 52.240183,
        "longitude": 20.994298,
        "url": "https://www.google.com/maps/place/TIKHARI+MODERN+GEORGIA/data=!4m7!3m6!1s0x471ecd3e80cbcd93:0x679425bdac8b22b3!8m2!3d52.240183!4d20.994298!16s%2Fg%2F11vyfcm0wp!19sChIJk83LgD7NHkcRsyKLrL0llGc?authuser=0&hl=pl&rclk=1"
    },
    {
        "name": "the EATERY trad.",
        "id": "0x471ecd6f8ace4b1b:0xa9807cfc5f6dc1f4",
        "latitude": 52.2379456,
        "longitude": 21.0322571,
        "url": "https://www.google.com/maps/place/the+EATERY+trad./data=!4m7!3m6!1s0x471ecd6f8ace4b1b:0xa9807cfc5f6dc1f4!8m2!3d52.2379456!4d21.0322571!16s%2Fg%2F11ld7m307l!19sChIJG0vOim_NHkcR9MFtX_x8gKk?authuser=0&hl=pl&rclk=1"
    },
    {
        "name": "BROOKLYN",
        "id": "0x471ecc8ed191a3ed:0xac28dc41e598bc30",
        "latitude": 52.2339734,
        "longitude": 20.9985223,
        "url": "https://www.google.com/maps/place/BROOKLYN/data=!4m7!3m6!1s0x471ecc8ed191a3ed:0xac28dc41e598bc30!8m2!3d52.2339734!4d20.9985223!16s%2Fg%2F1s04bsmwp!19sChIJ7aOR0Y7MHkcRMLyY5UHcKKw?authuser=0&hl=pl&rclk=1"
    },
    {
        "name": "Olivos Restaurant",
        "id": "0x471ecd72a8c6c84f:0xd072afec7df97d50",
        "latitude": 52.2353332,
        "longitude": 20.9872998,
        "url": "https://www.google.com/maps/place/Olivos+Restaurant/data=!4m7!3m6!1s0x471ecd72a8c6c84f:0xd072afec7df97d50!8m2!3d52.2353332!4d20.9872998!16s%2Fg%2F11q2yqrq9c!19sChIJT8jGqHLNHkcRUH35feyvctA?authuser=0&hl=pl&rclk=1"
    },
    {
        "name": "NINE's Restaurant",
        "id": "0x471ecd648d5b4325:0x210c1541f68a8766",
        "latitude": 52.2353,
        "longitude": 20.9872926,
        "url": "https://www.google.com/maps/place/NINE%27s+Restaurant/data=!4m7!3m6!1s0x471ecd648d5b4325:0x210c1541f68a8766!8m2!3d52.2353!4d20.9872926!16s%2Fg%2F11rsbq_64h!19sChIJJUNbjWTNHkcRZoeK9kEVDCE?authuser=0&hl=pl&rclk=1"
    },
    {
        "name": "Restauracja Delicja Polska",
        "id": "0x471ecc66e561e1df:0x513943d088dfea6a",
        "latitude": 52.2454325,
        "longitude": 21.0142753,
        "url": "https://www.google.com/maps/place/Restauracja+Delicja+Polska/data=!4m7!3m6!1s0x471ecc66e561e1df:0x513943d088dfea6a!8m2!3d52.2454325!4d21.0142753!16s%2Fg%2F1hc5pz3vx!19sChIJ3-Fh5WbMHkcRaurfiNBDOVE?authuser=0&hl=pl&rclk=1"
    },
    {
        "name": "Ogród Smaku",
        "id": "0x471ecc87f1d2909f:0x5f4b54eaa62e89a0",
        "latitude": 52.2396489,
        "longitude": 20.9965827,
        "url": "https://www.google.com/maps/place/Ogr%C3%B3d+Smaku/data=!4m7!3m6!1s0x471ecc87f1d2909f:0x5f4b54eaa62e89a0!8m2!3d52.2396489!4d20.9965827!16s%2Fg%2F11gh3851yt!19sChIJn5DS8YfMHkcRoIkupupUS18?authuser=0&hl=pl&rclk=1"
    },
    {
        "name": "Indian Summers",
        "id": "0x471ecbdafffc18ef:0x6219cf0fb574347",
        "latitude": 52.234811,
        "longitude": 20.9961109,
        "url": "https://www.google.com/maps/place/Indian+Summers/data=!4m7!3m6!1s0x471ecbdafffc18ef:0x6219cf0fb574347!8m2!3d52.234811!4d20.9961109!16s%2Fg%2F11fnrd6_x8!19sChIJ7xj8_9rLHkcRR0NX-_CcIQY?authuser=0&hl=pl&rclk=1"
    },
    {
        "name": "Reina Steakhouse",
        "id": "0x471ecdef0c1daa47:0x3b6f857849ec729",
        "latitude": 52.234433,
        "longitude": 21.0119,
        "url": "https://www.google.com/maps/place/Reina+Steakhouse/data=!4m7!3m6!1s0x471ecdef0c1daa47:0x3b6f857849ec729!8m2!3d52.234433!4d21.0119!16s%2Fg%2F11qgfc5h6g!19sChIJR6odDO_NHkcRKceehFf4tgM?authuser=0&hl=pl&rclk=1"
    },
    {
        "name": "InFormal Kitchen",
        "id": "0x471ecc6071b9cff9:0x95868e8e53efff0a",
        "latitude": 52.2389951,
        "longitude": 21.0137444,
        "url": "https://www.google.com/maps/place/InFormal+Kitchen/data=!4m7!3m6!1s0x471ecc6071b9cff9:0x95868e8e53efff0a!8m2!3d52.2389951!4d21.0137444!16s%2Fg%2F11b6v61thp!19sChIJ-c-5cWDMHkcRCv_vU46OhpU?authuser=0&hl=pl&rclk=1"
    },
    {
        "name": "The Alchemist Grill & Cocktail",
        "id": "0x471ecdc8901afccb:0xe9a8d3ec63671dee",
        "latitude": 52.2368355,
        "longitude": 21.0007137,
        "url": "https://www.google.com/maps/place/The+Alchemist+Grill+%26+Cocktail/data=!4m7!3m6!1s0x471ecdc8901afccb:0xe9a8d3ec63671dee!8m2!3d52.2368355!4d21.0007137!16s%2Fg%2F11mgqx2h2h!19sChIJy_wakMjNHkcR7h1nY-zTqOk?authuser=0&hl=pl&rclk=1"
    },
    {
        "name": "Prime Cut",
        "id": "0x471ecd89be3ee719:0x3d2ca247b1dd83b8",
        "latitude": 52.2344317,
        "longitude": 20.9994726,
        "url": "https://www.google.com/maps/place/Prime+Cut/data=!4m7!3m6!1s0x471ecd89be3ee719:0x3d2ca247b1dd83b8!8m2!3d52.2344317!4d20.9994726!16s%2Fg%2F11gjxts4vd!19sChIJGec-vonNHkcRuIPdsUeiLD0?authuser=0&hl=pl&rclk=1"
    },
    {
        "name": "Restauracja Der Elefant",
        "id": "0x471ecc6302ac14bd:0x6a3e70bd62672a8f",
        "latitude": 52.2417903,
        "longitude": 21.0035137,
        "url": "https://www.google.com/maps/place/Restauracja+Der+Elefant/data=!4m7!3m6!1s0x471ecc6302ac14bd:0x6a3e70bd62672a8f!8m2!3d52.2417903!4d21.0035137!16s%2Fg%2F1q69jn46g!19sChIJvRSsAmPMHkcRjypnYr1wPmo?authuser=0&hl=pl&rclk=1"
    },
    {
        "name": "UKIM",
        "id": "0x471ecc86fc1baebd:0x390ebce539eb5a5f",
        "latitude": 52.238016,
        "longitude": 20.9910348,
        "url": "https://www.google.com/maps/place/UKIM/data=!4m7!3m6!1s0x471ecc86fc1baebd:0x390ebce539eb5a5f!8m2!3d52.238016!4d20.9910348!16s%2Fg%2F11gffy_n6q!19sChIJva4b_IbMHkcRX1rrOeW8Djk?authuser=0&hl=pl&rclk=1"
    },
    {
        "name": "Francuska Robota",
        "id": "0x471ecc8363485eaf:0xda9170d8c7dd44b3",
        "latitude": 52.2343776,
        "longitude": 20.9897812,
        "url": "https://www.google.com/maps/place/Francuska+Robota/data=!4m7!3m6!1s0x471ecc8363485eaf:0xda9170d8c7dd44b3!8m2!3d52.2343776!4d20.9897812!16s%2Fg%2F11f3jl9g64!19sChIJr15IY4PMHkcRs0Tdx9hwkdo?authuser=0&hl=pl&rclk=1"
    },
    {
        "name": "Pierogarnia \"U Kresowiaka\"",
        "id": "0x471eccef77cc489f:0xb576ac1757aba9b8",
        "latitude": 52.2223526,
        "longitude": 21.0178029,
        "url": "https://www.google.com/maps/place/Pierogarnia+%22U+Kresowiaka%22/data=!4m7!3m6!1s0x471eccef77cc489f:0xb576ac1757aba9b8!8m2!3d52.2223526!4d21.0178029!16s%2Fg%2F11gg65y340!19sChIJn0jMd-_MHkcRuKmrVxesdrU?authuser=0&hl=pl&rclk=1"
    },
    {
        "name": "Wi-Taj",
        "id": "0x471eccef7a915e07:0xadd6b5dabb70dd43",
        "latitude": 52.2218968,
        "longitude": 21.0177409,
        "url": "https://www.google.com/maps/place/Wi-Taj/data=!4m7!3m6!1s0x471eccef7a915e07:0xadd6b5dabb70dd43!8m2!3d52.2218968!4d21.0177409!16s%2Fg%2F11cp7pxcbr!19sChIJB16Reu_MHkcRQ91wu9q11q0?authuser=0&hl=pl&rclk=1"
    },
    {
        "name": "The Eatery",
        "id": "0x471ed315d621c6d5:0x2cb6e4e910d1c857",
        "latitude": 52.2223082,
        "longitude": 21.0144058,
        "url": "https://www.google.com/maps/place/The+Eatery/data=!4m7!3m6!1s0x471ed315d621c6d5:0x2cb6e4e910d1c857!8m2!3d52.2223082!4d21.0144058!16s%2Fg%2F11n7z7xs3h!19sChIJ1cYh1hXTHkcRV8jREOnktiw?authuser=0&hl=pl&rclk=1"
    },
    {
        "name": "U Szwejka",
        "id": "0x471eccef6adf9971:0x35458faf5f5f895d",
        "latitude": 52.2213354,
        "longitude": 21.0160374,
        "url": "https://www.google.com/maps/place/U+Szwejka/data=!4m7!3m6!1s0x471eccef6adf9971:0x35458faf5f5f895d!8m2!3d52.2213354!4d21.0160374!16s%2Fg%2F1tm0rxqh!19sChIJcZnfau_MHkcRXYlfX6-PRTU?authuser=0&hl=pl&rclk=1"
    },
    {
        "name": "Bar Mleczny Mokotowska 22",
        "id": "0x471ecce5857c6d79:0xf9a603bc760172dc",
        "latitude": 52.2215283,
        "longitude": 21.0192928,
        "url": "https://www.google.com/maps/place/Bar+Mleczny+Mokotowska+22/data=!4m7!3m6!1s0x471ecce5857c6d79:0xf9a603bc760172dc!8m2!3d52.2215283!4d21.0192928!16s%2Fg%2F11g6nzykx9!19sChIJeW18heXMHkcR3HIBdrwDpvk?authuser=0&hl=pl&rclk=1"
    },
    {
        "name": "Bianca Mozzarella",
        "id": "0x471ecb3e7c452c53:0x9b5fa9e7573d9902",
        "latitude": 52.2212433,
        "longitude": 21.0201695,
        "url": "https://www.google.com/maps/place/Bianca+Mozzarella/data=!4m7!3m6!1s0x471ecb3e7c452c53:0x9b5fa9e7573d9902!8m2!3d52.2212433!4d21.0201695!16s%2Fg%2F11lgsk3j3n!19sChIJUyxFfD7LHkcRApk9V-epX5s?authuser=0&hl=pl&rclk=1"
    },
    {
        "name": "Whiskey in the Jar",
        "id": "0x471ecd7333dc748d:0xe0974a9ce9003567",
        "latitude": 52.2231413,
        "longitude": 21.0149735,
        "url": "https://www.google.com/maps/place/Whiskey+in+the+Jar/data=!4m7!3m6!1s0x471ecd7333dc748d:0xe0974a9ce9003567!8m2!3d52.2231413!4d21.0149735!16s%2Fg%2F11j7h6p85x!19sChIJjXTcM3PNHkcRZzUA6ZxKl-A?authuser=0&hl=pl&rclk=1"
    },
    {
        "name": "Restauracja Wiesz Co Zjesz",
        "id": "0x471eccef42fbdd95:0x28ffd051c3be7ab0",
        "latitude": 52.2210293,
        "longitude": 21.0168745,
        "url": "https://www.google.com/maps/place/Restauracja+Wiesz+Co+Zjesz/data=!4m7!3m6!1s0x471eccef42fbdd95:0x28ffd051c3be7ab0!8m2!3d52.2210293!4d21.0168745!16s%2Fg%2F11b66dqkn7!19sChIJld37Qu_MHkcRsHq-w1HQ_yg?authuser=0&hl=pl&rclk=1"
    },
    {
        "name": "Uki Green",
        "id": "0x471ecd9f0e87d22f:0x3db145ae5e233689",
        "latitude": 52.2223082,
        "longitude": 21.0144058,
        "url": "https://www.google.com/maps/place/Uki+Green/data=!4m7!3m6!1s0x471ecd9f0e87d22f:0x3db145ae5e233689!8m2!3d52.2223082!4d21.0144058!16s%2Fg%2F11h0g_7jnr!19sChIJL9KHDp_NHkcRiTYjXq5FsT0?authuser=0&hl=pl&rclk=1"
    },
    {
        "name": "Dyletanci",
        "id": "0x471eccfea82dd135:0xf4665d5b9ecc1f3",
        "latitude": 52.222241,
        "longitude": 21.0145465,
        "url": "https://www.google.com/maps/place/Dyletanci/data=!4m7!3m6!1s0x471eccfea82dd135:0xf4665d5b9ecc1f3!8m2!3d52.222241!4d21.0145465!16s%2Fg%2F1ptz0r_xl!19sChIJNdEtqP7MHkcR88HsudVlRg8?authuser=0&hl=pl&rclk=1"
    },
    {
        "name": "ORZO Verde",
        "id": "0x471eccef01f39d3d:0xa909f071a4fff84e",
        "latitude": 52.2222639,
        "longitude": 21.0152612,
        "url": "https://www.google.com/maps/place/ORZO+Verde/data=!4m7!3m6!1s0x471eccef01f39d3d:0xa909f071a4fff84e!8m2!3d52.2222639!4d21.0152612!16s%2Fg%2F11b6q841p6!19sChIJPZ3zAe_MHkcRTvj_pHHwCak?authuser=0&hl=pl&rclk=1"
    },
    {
        "name": "Marcello Warszawa",
        "id": "0x471ecda7f39f4833:0x7722dc61773af459",
        "latitude": 52.2235054,
        "longitude": 21.0166794,
        "url": "https://www.google.com/maps/place/Marcello+Warszawa/data=!4m7!3m6!1s0x471ecda7f39f4833:0x7722dc61773af459!8m2!3d52.2235054!4d21.0166794!16s%2Fg%2F11q_2yk0td!19sChIJM0if86fNHkcRWfQ6d2HcInc?authuser=0&hl=pl&rclk=1"
    },
    {
        "name": "Patelnia Patera",
        "id": "0x471ecd6580f83955:0x20ffbebb223fc068",
        "latitude": 52.224791,
        "longitude": 21.0161,
        "url": "https://www.google.com/maps/place/Patelnia+Patera/data=!4m7!3m6!1s0x471ecd6580f83955:0x20ffbebb223fc068!8m2!3d52.224791!4d21.0161!16s%2Fg%2F11nh99mq7b!19sChIJVTn4gGXNHkcRaMA_Iru-_yA?authuser=0&hl=pl&rclk=1"
    },
    {
        "name": "Groole",
        "id": "0x471eccef23937be3:0xadc96bcb1db2203d",
        "latitude": 52.221621,
        "longitude": 21.0151292,
        "url": "https://www.google.com/maps/place/Groole/data=!4m7!3m6!1s0x471eccef23937be3:0xadc96bcb1db2203d!8m2!3d52.221621!4d21.0151292!16s%2Fg%2F113gq5dwt!19sChIJ43uTI-_MHkcRPSCyHctrya0?authuser=0&hl=pl&rclk=1"
    },
    {
        "name": "Dyspensa. Restauracja",
        "id": "0x471ecce57c3b8751:0x1772faf318b34973",
        "latitude": 52.2218391,
        "longitude": 21.0191071,
        "url": "https://www.google.com/maps/place/Dyspensa.+Restauracja/data=!4m7!3m6!1s0x471ecce57c3b8751:0x1772faf318b34973!8m2!3d52.2218391!4d21.0191071!16s%2Fg%2F1tfdxly5!19sChIJUYc7fOXMHkcRc0mzGPP6chc?authuser=0&hl=pl&rclk=1"
    },
    {
        "name": "Wół na Stół",
        "id": "0x471ecd76350620db:0xbc5ef91882ef4116",
        "latitude": 52.2237131,
        "longitude": 21.0176031,
        "url": "https://www.google.com/maps/place/W%C3%B3%C5%82+na+St%C3%B3%C5%82/data=!4m7!3m6!1s0x471ecd76350620db:0xbc5ef91882ef4116!8m2!3d52.2237131!4d21.0176031!16s%2Fg%2F11j0w8z1w0!19sChIJ2yAGNXbNHkcRFkHvghj5Xrw?authuser=0&hl=pl&rclk=1"
    },
    {
        "name": "nabe hotpot & bbq & lunch",
        "id": "0x471ecd139b6924ed:0x25e05f1dfc694c8",
        "latitude": 52.2242792,
        "longitude": 21.0155261,
        "url": "https://www.google.com/maps/place/nabe+hotpot+%26+bbq+%26+lunch/data=!4m7!3m6!1s0x471ecd139b6924ed:0x25e05f1dfc694c8!8m2!3d52.2242792!4d21.0155261!16s%2Fg%2F11yg1pkwcq!19sChIJ7SRpmxPNHkcRyJTG3_EFXgI?authuser=0&hl=pl&rclk=1"
    },
    {
        "name": "K-Bar Piękna",
        "id": "0x471ecd48490ff807:0xc37acc6f5b55d0f",
        "latitude": 52.2236854,
        "longitude": 21.0175358,
        "url": "https://www.google.com/maps/place/K-Bar+Pi%C4%99kna/data=!4m7!3m6!1s0x471ecd48490ff807:0xc37acc6f5b55d0f!8m2!3d52.2236854!4d21.0175358!16s%2Fg%2F11fr39r65g!19sChIJB_gPSUjNHkcRD1219casNww?authuser=0&hl=pl&rclk=1"
    },
    {
        "name": "Va Bene Cicchetti",
        "id": "0x471ecd3ac0f4173d:0xcc007aed6938f125",
        "latitude": 52.2210865,
        "longitude": 21.0152568,
        "url": "https://www.google.com/maps/place/Va+Bene+Cicchetti/data=!4m7!3m6!1s0x471ecd3ac0f4173d:0xcc007aed6938f125!8m2!3d52.2210865!4d21.0152568!16s%2Fg%2F11s5jydfwx!19sChIJPRf0wDrNHkcRJfE4ae16AMw?authuser=0&hl=pl&rclk=1"
    },
    {
        "name": "Manekin",
        "id": "0x471eccef00fa2e75:0x36ddf9623a65d28d",
        "latitude": 52.2227437,
        "longitude": 21.0150329,
        "url": "https://www.google.com/maps/place/Manekin/data=!4m7!3m6!1s0x471eccef00fa2e75:0x36ddf9623a65d28d!8m2!3d52.2227437!4d21.0150329!16s%2Fg%2F11b6v61z_1!19sChIJdS76AO_MHkcRjdJlOmL53TY?authuser=0&hl=pl&rclk=1"
    },
    {
        "name": "Secret Spice Restauracja",
        "id": "0x471ecd30f8c4c183:0x186442198c089e80",
        "latitude": 52.2235038,
        "longitude": 21.0194433,
        "url": "https://www.google.com/maps/place/Secret+Spice+Restauracja/data=!4m7!3m6!1s0x471ecd30f8c4c183:0x186442198c089e80!8m2!3d52.2235038!4d21.0194433!16s%2Fg%2F11fmgzv27s!19sChIJg8HE-DDNHkcRgJ4IjBlCZBg?authuser=0&hl=pl&rclk=1"
    },
    {
        "name": "Pełną Parą",
        "id": "0x471ecce8cab61995:0xd6ed581fe6529362",
        "latitude": 52.2201403,
        "longitude": 21.0143998,
        "url": "https://www.google.com/maps/place/Pe%C5%82n%C4%85+Par%C4%85/data=!4m7!3m6!1s0x471ecce8cab61995:0xd6ed581fe6529362!8m2!3d52.2201403!4d21.0143998!16s%2Fg%2F11c45wntmq!19sChIJlRm2yujMHkcRYpNS5h9Y7dY?authuser=0&hl=pl&rclk=1"
    },
    {
        "name": "La Bàn",
        "id": "0x471ecd0180fb96b7:0xd244e1589511e97d",
        "latitude": 52.2249518,
        "longitude": 21.0195578,
        "url": "https://www.google.com/maps/place/La+B%C3%A0n/data=!4m7!3m6!1s0x471ecd0180fb96b7:0xd244e1589511e97d!8m2!3d52.2249518!4d21.0195578!16s%2Fg%2F11ll35dwgt!19sChIJt5b7gAHNHkcRfekRlVjhRNI?authuser=0&hl=pl&rclk=1"
    },
    {
        "name": "Oh My Pho",
        "id": "0x471eccee25305057:0x2696dbc0f4d4252e",
        "latitude": 52.2250639,
        "longitude": 21.0161963,
        "url": "https://www.google.com/maps/place/Oh+My+Pho/data=!4m7!3m6!1s0x471eccee25305057:0x2696dbc0f4d4252e!8m2!3d52.2250639!4d21.0161963!16s%2Fg%2F11b7xjq9bs!19sChIJV1AwJe7MHkcRLiXU9MDbliY?authuser=0&hl=pl&rclk=1"
    },
    {
        "name": "Giada Italian Restaurant",
        "id": "0x471ecd17f4db0883:0x8b8af2dc2b119000",
        "latitude": 52.2245163,
        "longitude": 21.0208568,
        "url": "https://www.google.com/maps/place/Giada+Italian+Restaurant/data=!4m7!3m6!1s0x471ecd17f4db0883:0x8b8af2dc2b119000!8m2!3d52.2245163!4d21.0208568!16s%2Fg%2F11ygy5wkc2!19sChIJgwjb9BfNHkcRAJARK9zyios?authuser=0&hl=pl&rclk=1"
    },
    {
        "name": "To To Pho",
        "id": "0x471ecce58be50dfd:0x8201bb5d6a83e7a2",
        "latitude": 52.2212279,
        "longitude": 21.0186018,
        "url": "https://www.google.com/maps/place/To+To+Pho/data=!4m7!3m6!1s0x471ecce58be50dfd:0x8201bb5d6a83e7a2!8m2!3d52.2212279!4d21.0186018!16s%2Fg%2F11cm057d_d!19sChIJ_Q3li-XMHkcRoueDal27AYI?authuser=0&hl=pl&rclk=1"
    },
    {
        "name": "Prodiż Warszawski",
        "id": "0x471eccede4556c9b:0x5c7b909361b84865",
        "latitude": 52.2252187,
        "longitude": 21.0119788,
        "url": "https://www.google.com/maps/place/Prodi%C5%BC+Warszawski/data=!4m7!3m6!1s0x471eccede4556c9b:0x5c7b909361b84865!8m2!3d52.2252187!4d21.0119788!16s%2Fg%2F11c1x2_shb!19sChIJm2xV5O3MHkcRZUi4YZOQe1w?authuser=0&hl=pl&rclk=1"
    },
    {
        "name": "Namdemun kuchnia koreańska",
        "id": "0x471ecd2f0e34e67d:0x641953f4f1340252",
        "latitude": 52.2238513,
        "longitude": 21.0123553,
        "url": "https://www.google.com/maps/place/Namdemun+kuchnia+korea%C5%84ska/data=!4m7!3m6!1s0x471ecd2f0e34e67d:0x641953f4f1340252!8m2!3d52.2238513!4d21.0123553!16s%2Fg%2F11ldz4wlxd!19sChIJfeY0Di_NHkcRUgI08fRTGWQ?authuser=0&hl=pl&rclk=1"
    },
    {
        "name": "Soul Kitchen",
        "id": "0x471ecceea9d27dd9:0x546318f7fcac603",
        "latitude": 52.2294411,
        "longitude": 21.0149439,
        "url": "https://www.google.com/maps/place/Soul+Kitchen/data=!4m7!3m6!1s0x471ecceea9d27dd9:0x546318f7fcac603!8m2!3d52.2294411!4d21.0149439!16s%2Fg%2F113fx72k_!19sChIJ2X3Sqe7MHkcRA8bKf48xRgU?authuser=0&hl=pl&rclk=1"
    },
    {
        "name": "Flaming & Co Restaurant",
        "id": "0x471ecc58a7b68c45:0xbc8a89c15595cb9e",
        "latitude": 52.2228688,
        "longitude": 21.0210686,
        "url": "https://www.google.com/maps/place/Flaming+%26+Co+Restaurant/data=!4m7!3m6!1s0x471ecc58a7b68c45:0xbc8a89c15595cb9e!8m2!3d52.2228688!4d21.0210686!16s%2Fg%2F1tg2jf5h!19sChIJRYy2p1jMHkcRnsuVVcGJirw?authuser=0&hl=pl&rclk=1"
    },
    {
        "name": "Sisters restaurant",
        "id": "0x471ecd00311a961d:0x5f27552dd107a12e",
        "latitude": 52.2252754,
        "longitude": 21.0149406,
        "url": "https://www.google.com/maps/place/Sisters+restaurant/data=!4m7!3m6!1s0x471ecd00311a961d:0x5f27552dd107a12e!8m2!3d52.2252754!4d21.0149406!16s%2Fg%2F11ymjt0_nt!19sChIJHZYaMQDNHkcRLqEH0S1VJ18?authuser=0&hl=pl&rclk=1"
    },
    {
        "name": "Smashny Burger",
        "id": "0x471ecd93f53594db:0xf97a86050e9a49ab",
        "latitude": 52.2253612,
        "longitude": 21.0173208,
        "url": "https://www.google.com/maps/place/Smashny+Burger/data=!4m7!3m6!1s0x471ecd93f53594db:0xf97a86050e9a49ab!8m2!3d52.2253612!4d21.0173208!16s%2Fg%2F11my1l237l!19sChIJ25Q19ZPNHkcRq0maDgWGevk?authuser=0&hl=pl&rclk=1"
    },
    {
        "name": "Veganda",
        "id": "0x471ecd5a2ccefbad:0xcb69218d4a18abc",
        "latitude": 52.220011,
        "longitude": 21.017018,
        "url": "https://www.google.com/maps/place/Veganda/data=!4m7!3m6!1s0x471ecd5a2ccefbad:0xcb69218d4a18abc!8m2!3d52.220011!4d21.017018!16s%2Fg%2F11fhr1rnhp!19sChIJrfvOLFrNHkcRvIqh1BiStgw?authuser=0&hl=pl&rclk=1"
    },
    {
        "name": "alewino",
        "id": "0x471eccfaa8ee1225:0xbaf0567eba85ec17",
        "latitude": 52.225187,
        "longitude": 21.021753,
        "url": "https://www.google.com/maps/place/alewino/data=!4m7!3m6!1s0x471eccfaa8ee1225:0xbaf0567eba85ec17!8m2!3d52.225187!4d21.021753!16s%2Fg%2F1tjddyss!19sChIJJRLuqPrMHkcRF-yFun5W8Lo?authuser=0&hl=pl&rclk=1"
    },
    {
        "name": "Felicita Pizza & Panuozzo",
        "id": "0x471ecd771f8a61f5:0xe3ad058d8407e75f",
        "latitude": 52.218808,
        "longitude": 21.018867,
        "url": "https://www.google.com/maps/place/Felicita+Pizza+%26+Panuozzo/data=!4m7!3m6!1s0x471ecd771f8a61f5:0xe3ad058d8407e75f!8m2!3d52.218808!4d21.018867!16s%2Fg%2F11ms8s0w83!19sChIJ9WGKH3fNHkcRX-cHhI0FreM?authuser=0&hl=pl&rclk=1"
    },
    {
        "name": "Charlotte plac Zbawiciela",
        "id": "0x471ecce5e426360b:0xd5ff1109158e1c4",
        "latitude": 52.2200841,
        "longitude": 21.0186389,
        "url": "https://www.google.com/maps/place/Charlotte+plac+Zbawiciela/data=!4m7!3m6!1s0x471ecce5e426360b:0xd5ff1109158e1c4!8m2!3d52.2200841!4d21.0186389!16s%2Fg%2F1vppr8ll!19sChIJCzYm5OXMHkcRxOFYkRDxXw0?authuser=0&hl=pl&rclk=1"
    },
    {
        "name": "NiyomThai",
        "id": "0x471eccee799d83cd:0xc99c48ff31fcca1e",
        "latitude": 52.224661,
        "longitude": 21.0119399,
        "url": "https://www.google.com/maps/place/NiyomThai/data=!4m7!3m6!1s0x471eccee799d83cd:0xc99c48ff31fcca1e!8m2!3d52.224661!4d21.0119399!16s%2Fg%2F1tdmj71h!19sChIJzYOdee7MHkcRHsr8Mf9InMk?authuser=0&hl=pl&rclk=1"
    },
    {
        "name": "Ristorante Semolino Hala Koszyki",
        "id": "0x471eccee9147791b:0xb0f27017d228f947",
        "latitude": 52.222139,
        "longitude": 21.0111319,
        "url": "https://www.google.com/maps/place/Ristorante+Semolino+Hala+Koszyki/data=!4m7!3m6!1s0x471eccee9147791b:0xb0f27017d228f947!8m2!3d52.222139!4d21.0111319!16s%2Fg%2F11c70cfzpx!19sChIJG3lHke7MHkcRR_ko0hdw8rA?authuser=0&hl=pl&rclk=1"
    },
    {
        "name": "Restauracja Tran Tran",
        "id": "0x471ecdf5f4f4ab05:0xdd738c403e5e2132",
        "latitude": 52.2257519,
        "longitude": 21.0193862,
        "url": "https://www.google.com/maps/place/Restauracja+Tran+Tran/data=!4m7!3m6!1s0x471ecdf5f4f4ab05:0xdd738c403e5e2132!8m2!3d52.2257519!4d21.0193862!16s%2Fg%2F11h6r1f6nf!19sChIJBav09PXNHkcRMiFePkCMc90?authuser=0&hl=pl&rclk=1"
    },
    {
        "name": "Soto Sushi",
        "id": "0x471eccf02aa3856d:0xd1bcee518a2b6361",
        "latitude": 52.2209052,
        "longitude": 21.0160241,
        "url": "https://www.google.com/maps/place/Soto+Sushi/data=!4m7!3m6!1s0x471eccf02aa3856d:0xd1bcee518a2b6361!8m2!3d52.2209052!4d21.0160241!16s%2Fg%2F1hm2dmj_3!19sChIJbYWjKvDMHkcRYWMrilHuvNE?authuser=0&hl=pl&rclk=1"
    },
    {
        "name": "Mokotowska 69",
        "id": "0x471eccf087125333:0xc751ee71f4bbfa19",
        "latitude": 52.227313,
        "longitude": 21.022247,
        "url": "https://www.google.com/maps/place/Mokotowska+69/data=!4m7!3m6!1s0x471eccf087125333:0xc751ee71f4bbfa19!8m2!3d52.227313!4d21.022247!16s%2Fg%2F1tqtwn26!19sChIJM1MSh_DMHkcRGfq79HHuUcc?authuser=0&hl=pl&rclk=1"
    },
    {
        "name": "Bar Mleczny Lindleya 14",
        "id": "0x471ecde52a4f1d87:0x1c710badaedc3cc1",
        "latitude": 52.2258055,
        "longitude": 20.9965157,
        "url": "https://www.google.com/maps/place/Bar+Mleczny+Lindleya+14/data=!4m7!3m6!1s0x471ecde52a4f1d87:0x1c710badaedc3cc1!8m2!3d52.2258055!4d20.9965157!16s%2Fg%2F11j84txthg!19sChIJhx1PKuXNHkcRwTzcrq0LcRw?authuser=0&hl=pl&rclk=1"
    },
    {
        "name": "Pielmieni BAR - Restauracja W Kuchni",
        "id": "0x471ecda8f7f7f5dd:0x5a16cce789c0aa68",
        "latitude": 52.2274436,
        "longitude": 21.0021174,
        "url": "https://www.google.com/maps/place/Pielmieni+BAR+-+Restauracja+W+Kuchni/data=!4m7!3m6!1s0x471ecda8f7f7f5dd:0x5a16cce789c0aa68!8m2!3d52.2274436!4d21.0021174!16s%2Fg%2F11h3g477y9!19sChIJ3fX396jNHkcRaKrAiefMFlo?authuser=0&hl=pl&rclk=1"
    },
    {
        "name": "RASOI Restauracja Indyjska",
        "id": "0x471ecc8deefcfddb:0xb2c5c9d69bec7a4d",
        "latitude": 52.2293194,
        "longitude": 20.9997466,
        "url": "https://www.google.com/maps/place/RASOI+Restauracja+Indyjska/data=!4m7!3m6!1s0x471ecc8deefcfddb:0xb2c5c9d69bec7a4d!8m2!3d52.2293194!4d20.9997466!16s%2Fg%2F1pt_f7zcr!19sChIJ2_387o3MHkcRTXrsm9bJxbI?authuser=0&hl=pl&rclk=1"
    },
    {
        "name": "Beef and Pepper Steak house",
        "id": "0x471eccf28525442f:0x9f75c42e693c6c72",
        "latitude": 52.2277778,
        "longitude": 21.0083333,
        "url": "https://www.google.com/maps/place/Beef+and+Pepper+Steak+house/data=!4m7!3m6!1s0x471eccf28525442f:0x9f75c42e693c6c72!8m2!3d52.2277778!4d21.0083333!16s%2Fg%2F11btrrsscc!19sChIJL0QlhfLMHkcRcmw8aS7EdZ8?authuser=0&hl=pl&rclk=1"
    },
    {
        "name": "Żarcie Mamuśki",
        "id": "0x471eccf4601677e5:0xc0f05e452ff0ed23",
        "latitude": 52.2326511,
        "longitude": 20.9902204,
        "url": "https://www.google.com/maps/place/%C5%BBarcie+Mamu%C5%9Bki/data=!4m7!3m6!1s0x471eccf4601677e5:0xc0f05e452ff0ed23!8m2!3d52.2326511!4d20.9902204!16s%2Fg%2F11cs1wf3h0!19sChIJ5XcWYPTMHkcRI-3wL0Ve8MA?authuser=0&hl=pl&rclk=1"
    },
    {
        "name": "Żabka | Prosto z pieca",
        "id": "0x471ecdb15482aabd:0x1e75591ca266c9",
        "latitude": 52.2304146,
        "longitude": 20.9932792,
        "url": "https://www.google.com/maps/place/%C5%BBabka+%7C+Prosto+z+pieca/data=!4m7!3m6!1s0x471ecdb15482aabd:0x1e75591ca266c9!8m2!3d52.2304146!4d20.9932792!16s%2Fg%2F11qg281sns!19sChIJvaqCVLHNHkcRyWaiHFl1HgA?authuser=0&hl=pl&rclk=1"
    },
    {
        "name": "\"Sushi Złota\" Złote Tarasy",
        "id": "0x471ecdb921667e5d:0x915d37e496cf1e38",
        "latitude": 52.2297951,
        "longitude": 21.0031108,
        "url": "https://www.google.com/maps/place/%22Sushi+Z%C5%82ota%22+Z%C5%82ote+Tarasy/data=!4m7!3m6!1s0x471ecdb921667e5d:0x915d37e496cf1e38!8m2!3d52.2297951!4d21.0031108!16s%2Fg%2F11s58klr1b!19sChIJXX5mIbnNHkcROB7PluQ3XZE?authuser=0&hl=pl&rclk=1"
    }
]