[
    {
        "name": "Seafood House Grill & Wine",
        "id": "0x47192d515dec0d6f:0x61b31bad5851555f",
        "latitude": 52.174543,
        "longitude": 21.079118,
        "url": "https://www.google.com/maps/place/Seafood+House+Grill+%26+Wine/data=!4m7!3m6!1s0x47192d515dec0d6f:0x61b31bad5851555f!8m2!3d52.174543!4d21.079118!16s%2Fg%2F11zjjfz_5_!19sChIJbw3sXVEtGUcRX1VRWK0bs2E?authuser=0&hl=pl&rclk=1"
    },
    {
        "name": "Restauracja Nowy Gurewicz",
        "id": "0x47192bbb3cec682b:0xde6f6a755190d77e",
        "latitude": 52.102611,
        "longitude": 21.270796,
        "url": "https://www.google.com/maps/place/Restauracja+Nowy+Gurewicz/data=!4m7!3m6!1s0x47192bbb3cec682b:0xde6f6a755190d77e!8m2!3d52.102611!4d21.270796!16s%2Fg%2F11np0grqt2!19sChIJK2jsPLsrGUcRfteQUXVqb94?authuser=0&hl=pl&rclk=1"
    },
    {
        "name": "Munja Grzybowska 43",
        "id": "0x471ecc85e8807ccf:0x4ff3c0276f8a93c6",
        "latitude": 52.2347467,
        "longitude": 20.9919811,
        "url": "https://www.google.com/maps/place/Munja+Grzybowska+43/data=!4m7!3m6!1s0x471ecc85e8807ccf:0x4ff3c0276f8a93c6!8m2!3d52.2347467!4d20.9919811!16s%2Fg%2F11dyznyq7n!19sChIJz3yA6IXMHkcRxpOKbyfA808?authuser=0&hl=pl&rclk=1"
    },
    {
        "name": "Restauracja Primitivo Kuchnia i Wino - kuchnia śródziemnomorska Warszawa",
        "id": "0x471ecdc94ec04b1f:0xf0e7b1a601a1f505",
        "latitude": 52.235268,
        "longitude": 20.992115,
        "url": "https://www.google.com/maps/place/Restauracja+Primitivo+Kuchnia+i+Wino+-+kuchnia+%C5%9Br%C3%B3dziemnomorska+Warszawa/data=!4m7!3m6!1s0x471ecdc94ec04b1f:0xf0e7b1a601a1f505!8m2!3d52.235268!4d20.992115!16s%2Fg%2F11vprytzpx!19sChIJH0vATsnNHkcRBfWhAaax5_A?authuser=0&hl=pl&rclk=1"
    },
    {
        "name": "Savoré restaurant • cocktail bar",
        "id": "0x471ecd6ca6973eab:0x57acca4fdbc5ba63",
        "latitude": 52.233984,
        "longitude": 20.9896694,
        "url": "https://www.google.com/maps/place/Savor%C3%A9+restaurant+%E2%80%A2+cocktail+bar/data=!4m7!3m6!1s0x471ecd6ca6973eab:0x57acca4fdbc5ba63!8m2!3d52.233984!4d20.9896694!16s%2Fg%2F11t46md998!19sChIJqz6XpmzNHkcRY7rF20_KrFc?authuser=0&hl=pl&rclk=1"
    },
    {
        "name": "Wałek Warszawski",
        "id": "0x471ecd98af9bfdeb:0x2ac98c1c4da75aba",
        "latitude": 52.2330038,
        "longitude": 20.9910516,
        "url": "https://www.google.com/maps/place/Wa%C5%82ek+Warszawski/data=!4m7!3m6!1s0x471ecd98af9bfdeb:0x2ac98c1c4da75aba!8m2!3d52.2330038!4d20.9910516!16s%2Fg%2F11q37d61l3!19sChIJ6_2br5jNHkcRulqnTRyMySo?authuser=0&hl=pl&rclk=1"
    },
    {
        "name": "Baila Show&Dining",
        "id": "0x471ecda87beb3c5b:0xc9ab537b29980992",
        "latitude": 52.2344789,
        "longitude": 20.9876817,
        "url": "https://www.google.com/maps/place/Baila+Show%26Dining/data=!4m7!3m6!1s0x471ecda87beb3c5b:0xc9ab537b29980992!8m2!3d52.2344789!4d20.9876817!16s%2Fg%2F11rgb25srv!19sChIJWzzre6jNHkcRkgmYKXtTq8k?authuser=0&hl=pl&rclk=1"
    },
    {
        "name": "Casa Ristoranti",
        "id": "0x471ecc8f3ac76b23:0x660c5c6c9d3113fb",
        "latitude": 52.2338114,
        "longitude": 20.9964903,
        "url": "https://www.google.com/maps/place/Casa+Ristoranti/data=!4m7!3m6!1s0x471ecc8f3ac76b23:0x660c5c6c9d3113fb!8m2!3d52.2338114!4d20.9964903!16s%2Fg%2F11dxl9jg03!19sChIJI2vHOo_MHkcR-xMxnWxcDGY?authuser=0&hl=pl&rclk=1"
    },
    {
        "name": "Munja Browary Warszawskie",
        "id": "0x471ecd03d675699d:0xac86a1fe1f582d14",
        "latitude": 52.2345263,
        "longitude": 20.9872126,
        "url": "https://www.google.com/maps/place/Munja+Browary+Warszawskie/data=!4m7!3m6!1s0x471ecd03d675699d:0xac86a1fe1f582d14!8m2!3d52.2345263!4d20.9872126!16s%2Fg%2F11r9vb_k4q!19sChIJnWl11gPNHkcRFC1YH_6hhqw?authuser=0&hl=pl&rclk=1"
    },
    {
        "name": "VIWOK 58",
        "id": "0x471ecdd3b07dcdef:0x986c7e62177ad3a9",
        "latitude": 52.2350248,
        "longitude": 20.9909458,
        "url": "https://www.google.com/maps/place/VIWOK+58/data=!4m7!3m6!1s0x471ecdd3b07dcdef:0x986c7e62177ad3a9!8m2!3d52.2350248!4d20.9909458!16s%2Fg%2F11w7k39ppb!19sChIJ7819sNPNHkcRqdN6F2J-bJg?authuser=0&hl=pl&rclk=1"
    },
    {
        "name": "Niedaleko Damaszku - Vegan restaurant",
        "id": "0x471ecc8f35fcb981:0x42b1ad8167790c78",
        "latitude": 52.2345886,
        "longitude": 20.9962596,
        "url": "https://www.google.com/maps/place/Niedaleko+Damaszku+-+Vegan+restaurant/data=!4m7!3m6!1s0x471ecc8f35fcb981:0x42b1ad8167790c78!8m2!3d52.2345886!4d20.9962596!16s%2Fg%2F11dft7_2kb!19sChIJgbn8NY_MHkcReAx5Z4GtsUI?authuser=0&hl=pl&rclk=1"
    },
    {
        "name": "Kawiarnia La Lucy",
        "id": "0x471ecdd895ce96eb:0xa6b5437c79cdc918",
        "latitude": 52.2333651,
        "longitude": 20.9944348,
        "url": "https://www.google.com/maps/place/Kawiarnia+La+Lucy/data=!4m7!3m6!1s0x471ecdd895ce96eb:0xa6b5437c79cdc918!8m2!3d52.2333651!4d20.9944348!16s%2Fg%2F11gxmtnc8k!19sChIJ65bOldjNHkcRGMnNeXxDtaY?authuser=0&hl=pl&rclk=1"
    },
    {
        "name": "Royal Restaurant - polska kuchnia",
        "id": "0x471ecd263ffa770b:0x2d5e00c22f6e910c",
        "latitude": 52.2360168,
        "longitude": 21.0086082,
        "url": "https://www.google.com/maps/place/Royal+Restaurant+-+polska+kuchnia/data=!4m7!3m6!1s0x471ecd263ffa770b:0x2d5e00c22f6e910c!8m2!3d52.2360168!4d21.0086082!16s%2Fg%2F11vz0qtl99!19sChIJC3f6PybNHkcRDJFuL8IAXi0?authuser=0&hl=pl&rclk=1"
    },
    {
        "name": "the EATERY trad.",
        "id": "0x471ecd6f8ace4b1b:0xa9807cfc5f6dc1f4",
        "latitude": 52.2379456,
        "longitude": 21.0322571,
        "url": "https://www.google.com/maps/place/the+EATERY+trad./data=!4m7!3m6!1s0x471ecd6f8ace4b1b:0xa9807cfc5f6dc1f4!8m2!3d52.2379456!4d21.0322571!16s%2Fg%2F11ld7m307l!19sChIJG0vOim_NHkcR9MFtX_x8gKk?authuser=0&hl=pl&rclk=1"
    },
    {
        "name": "BROOKLYN",
        "id": "0x471ecc8ed191a3ed:0xac28dc41e598bc30",
        "latitude": 52.2339734,
        "longitude": 20.9985223,
        "url": "https://www.google.com/maps/place/BROOKLYN/data=!4m7!3m6!1s0x471ecc8ed191a3ed:0xac28dc41e598bc30!8m2!3d52.2339734!4d20.9985223!16s%2Fg%2F1s04bsmwp!19sChIJ7aOR0Y7MHkcRMLyY5UHcKKw?authuser=0&hl=pl&rclk=1"
    },
    {
        "name": "Olivos Restaurant",
        "id": "0x471ecd72a8c6c84f:0xd072afec7df97d50",
        "latitude": 52.2353332,
        "longitude": 20.9872998,
        "url": "https://www.google.com/maps/place/Olivos+Restaurant/data=!4m7!3m6!1s0x471ecd72a8c6c84f:0xd072afec7df97d50!8m2!3d52.2353332!4d20.9872998!16s%2Fg%2F11q2yqrq9c!19sChIJT8jGqHLNHkcRUH35feyvctA?authuser=0&hl=pl&rclk=1"
    },
    {
        "name": "Mandala Sienna",
        "id": "0x471ecd0da2303429:0x466c21c46f98fbe3",
        "latitude": 52.2297964,
        "longitude": 20.9920324,
        "url": "https://www.google.com/maps/place/Mandala+Sienna/data=!4m7!3m6!1s0x471ecd0da2303429:0x466c21c46f98fbe3!8m2!3d52.2297964!4d20.9920324!16s%2Fg%2F11xh9n4cwm!19sChIJKTQwog3NHkcR4_uYb8QhbEY?authuser=0&hl=pl&rclk=1"
    },
    {
        "name": "Miss Kimchi",
        "id": "0x471ecc85d2f64dc3:0xe35f891e106337b4",
        "latitude": 52.230004,
        "longitude": 20.9940694,
        "url": "https://www.google.com/maps/place/Miss+Kimchi/data=!4m7!3m6!1s0x471ecc85d2f64dc3:0xe35f891e106337b4!8m2!3d52.230004!4d20.9940694!16s%2Fg%2F11bw65y7b9!19sChIJw0320oXMHkcRtDdjEB6JX-M?authuser=0&hl=pl&rclk=1"
    },
    {
        "name": "SUSHI tu Thai Restaurant",
        "id": "0x471ecd9dc2951d9f:0x2dc5aae390be77c7",
        "latitude": 52.229964,
        "longitude": 20.9931478,
        "url": "https://www.google.com/maps/place/SUSHI+tu+Thai+Restaurant/data=!4m7!3m6!1s0x471ecd9dc2951d9f:0x2dc5aae390be77c7!8m2!3d52.229964!4d20.9931478!16s%2Fg%2F11lfrljh2t!19sChIJnx2Vwp3NHkcRx3e-kOOqxS0?authuser=0&hl=pl&rclk=1"
    },
    {
        "name": "Restauracja Gruzińska Madloba",
        "id": "0x471ecd0026923d3d:0x879ef48ebd8b5f8b",
        "latitude": 52.2303631,
        "longitude": 20.9932631,
        "url": "https://www.google.com/maps/place/Restauracja+Gruzi%C5%84ska+Madloba/data=!4m7!3m6!1s0x471ecd0026923d3d:0x879ef48ebd8b5f8b!8m2!3d52.2303631!4d20.9932631!16s%2Fg%2F11w95vv_15!19sChIJPT2SJgDNHkcRi1-LvY70noc?authuser=0&hl=pl&rclk=1"
    },
    {
        "name": "Pełną Parą na Siennej",
        "id": "0x471ecc8fcb8f9c81:0x6b7a514922c70ad",
        "latitude": 52.2305578,
        "longitude": 20.9943916,
        "url": "https://www.google.com/maps/place/Pe%C5%82n%C4%85+Par%C4%85+na+Siennej/data=!4m7!3m6!1s0x471ecc8fcb8f9c81:0x6b7a514922c70ad!8m2!3d52.2305578!4d20.9943916!16s%2Fg%2F11b73pk033!19sChIJgZyPy4_MHkcRrXAskhSltwY?authuser=0&hl=pl&rclk=1"
    },
    {
        "name": "Sushi Żelazna",
        "id": "0x471ecc8fe80dc1ab:0xe175754026ea5768",
        "latitude": 52.2302913,
        "longitude": 20.9931525,
        "url": "https://www.google.com/maps/place/Sushi+%C5%BBelazna/data=!4m7!3m6!1s0x471ecc8fe80dc1ab:0xe175754026ea5768!8m2!3d52.2302913!4d20.9931525!16s%2Fg%2F1tgnvztl!19sChIJq8EN6I_MHkcRaFfqJkB1deE?authuser=0&hl=pl&rclk=1"
    },
    {
        "name": "BIN BIN - Asian Fusion Restaurant",
        "id": "0x471ecda1993a45fb:0x6e6b13a3103c53d5",
        "latitude": 52.2311621,
        "longitude": 20.9956831,
        "url": "https://www.google.com/maps/place/BIN+BIN+-+Asian+Fusion+Restaurant/data=!4m7!3m6!1s0x471ecda1993a45fb:0x6e6b13a3103c53d5!8m2!3d52.2311621!4d20.9956831!16s%2Fg%2F11q4m3ws_6!19sChIJ-0U6maHNHkcR1VM8EKMTa24?authuser=0&hl=pl&rclk=1"
    },
    {
        "name": "MOXO Restaurant",
        "id": "0x471ecdfea55dbd73:0x5426677ad137d041",
        "latitude": 52.232017,
        "longitude": 20.9916885,
        "url": "https://www.google.com/maps/place/MOXO+Restaurant/data=!4m7!3m6!1s0x471ecdfea55dbd73:0x5426677ad137d041!8m2!3d52.232017!4d20.9916885!16s%2Fg%2F11tf64n3h0!19sChIJc71dpf7NHkcRQdA30XpnJlQ?authuser=0&hl=pl&rclk=1"
    },
    {
        "name": "Pańska 85",
        "id": "0x471ecc8556b6edd1:0x6aa48efdd7328551",
        "latitude": 52.2308333,
        "longitude": 20.9905556,
        "url": "https://www.google.com/maps/place/Pa%C5%84ska+85/data=!4m7!3m6!1s0x471ecc8556b6edd1:0x6aa48efdd7328551!8m2!3d52.2308333!4d20.9905556!16s%2Fg%2F11c2p0_f7z!19sChIJ0e22VoXMHkcRUYUy1_2OpGo?authuser=0&hl=pl&rclk=1"
    },
    {
        "name": "Restauracja Holiday Inn Warsaw City Centre",
        "id": "0x471ecd8471daf0bb:0x1787794507b9ce24",
        "latitude": 52.2295887,
        "longitude": 20.9942881,
        "url": "https://www.google.com/maps/place/Restauracja+Holiday+Inn+Warsaw+City+Centre/data=!4m7!3m6!1s0x471ecd8471daf0bb:0x1787794507b9ce24!8m2!3d52.2295887!4d20.9942881!16s%2Fg%2F11g1klrw1d!19sChIJu_DacYTNHkcRJM65B0V5hxc?authuser=0&hl=pl&rclk=1"
    },
    {
        "name": "Hello Vietnam Pańska",
        "id": "0x471ecd1941022141:0xdcb9a201dca330cf",
        "latitude": 52.2318084,
        "longitude": 20.9951212,
        "url": "https://www.google.com/maps/place/Hello+Vietnam+Pa%C5%84ska/data=!4m7!3m6!1s0x471ecd1941022141:0xdcb9a201dca330cf!8m2!3d52.2318084!4d20.9951212!16s%2Fg%2F11nxrmpks5!19sChIJQSECQRnNHkcRzzCj3AGiudw?authuser=0&hl=pl&rclk=1"
    },
    {
        "name": "TURAN HALAL RESTAURANT",
        "id": "0x471ecdcea7502b41:0x4da30b7a2ffdb705",
        "latitude": 52.2317862,
        "longitude": 20.9950001,
        "url": "https://www.google.com/maps/place/TURAN+HALAL+RESTAURANT/data=!4m7!3m6!1s0x471ecdcea7502b41:0x4da30b7a2ffdb705!8m2!3d52.2317862!4d20.9950001!16s%2Fg%2F11td031yr6!19sChIJQStQp87NHkcRBbf9L3oLo00?authuser=0&hl=pl&rclk=1"
    },
    {
        "name": "Kresowe smaki Valentyny",
        "id": "0x471ecc90194feee9:0xed04b8e08e5b69a2",
        "latitude": 52.2297246,
        "longitude": 20.9915632,
        "url": "https://www.google.com/maps/place/Kresowe+smaki+Valentyny/data=!4m7!3m6!1s0x471ecc90194feee9:0xed04b8e08e5b69a2!8m2!3d52.2297246!4d20.9915632!16s%2Fg%2F11c2kmlln4!19sChIJ6e5PGZDMHkcRomlbjuC4BO0?authuser=0&hl=pl&rclk=1"
    },
    {
        "name": "FOOD TOWN w Fabryce Norblina - Restauracja - Street food - Bar - Eventy",
        "id": "0x471ecd7b65ae8ae9:0x6b9b3fd0fe49d7a0",
        "latitude": 52.2320716,
        "longitude": 20.990027,
        "url": "https://www.google.com/maps/place/FOOD+TOWN+w+Fabryce+Norblina+-+Restauracja+-+Street+food+-+Bar+-+Eventy/data=!4m7!3m6!1s0x471ecd7b65ae8ae9:0x6b9b3fd0fe49d7a0!8m2!3d52.2320716!4d20.990027!16s%2Fg%2F11qg926dch!19sChIJ6YquZXvNHkcRoNdJ_tA_m2s?authuser=0&hl=pl&rclk=1"
    },
    {
        "name": "Chmielarnia",
        "id": "0x471ecc8e4b6b7823:0x34bffd4864cd4413",
        "latitude": 52.2310961,
        "longitude": 20.9955585,
        "url": "https://www.google.com/maps/place/Chmielarnia/data=!4m7!3m6!1s0x471ecc8e4b6b7823:0x34bffd4864cd4413!8m2!3d52.2310961!4d20.9955585!16s%2Fg%2F12ml2ytc5!19sChIJI3hrS47MHkcRE0TNZEj9vzQ?authuser=0&hl=pl&rclk=1"
    },
    {
        "name": "Bocca Ristorante • Pizzeria",
        "id": "0x471ecdfe418144bd:0x4737bd184e35e90b",
        "latitude": 52.231974,
        "longitude": 20.9907126,
        "url": "https://www.google.com/maps/place/Bocca+Ristorante+%E2%80%A2+Pizzeria/data=!4m7!3m6!1s0x471ecdfe418144bd:0x4737bd184e35e90b!8m2!3d52.231974!4d20.9907126!16s%2Fg%2F11rtp8ygq1!19sChIJvUSBQf7NHkcRC-k1Thi9N0c?authuser=0&hl=pl&rclk=1"
    },
    {
        "name": "Restauracja Restro",
        "id": "0x471ecc8fac9d5721:0x6f09201601e35eba",
        "latitude": 52.2319441,
        "longitude": 20.9957299,
        "url": "https://www.google.com/maps/place/Restauracja+Restro/data=!4m7!3m6!1s0x471ecc8fac9d5721:0x6f09201601e35eba!8m2!3d52.2319441!4d20.9957299!16s%2Fg%2F1hc78ly14!19sChIJIVedrI_MHkcRul7jARYgCW8?authuser=0&hl=pl&rclk=1"
    },
    {
        "name": "WANDAL",
        "id": "0x471ecda2600cf9b7:0xddf4bcb80eb8872c",
        "latitude": 52.2299413,
        "longitude": 20.989348,
        "url": "https://www.google.com/maps/place/WANDAL/data=!4m7!3m6!1s0x471ecda2600cf9b7:0xddf4bcb80eb8872c!8m2!3d52.2299413!4d20.989348!16s%2Fg%2F11yfzj9p_r!19sChIJt_kMYKLNHkcRLIe4Dri89N0?authuser=0&hl=pl&rclk=1"
    },
    {
        "name": "Paradiso Kitchen & Cocktails",
        "id": "0x471ecd1e8695a3d9:0x41ce84b12aba8ede",
        "latitude": 52.2320818,
        "longitude": 20.9911226,
        "url": "https://www.google.com/maps/place/Paradiso+Kitchen+%26+Cocktails/data=!4m7!3m6!1s0x471ecd1e8695a3d9:0x41ce84b12aba8ede!8m2!3d52.2320818!4d20.9911226!16s%2Fg%2F11t1h2vl5n!19sChIJ2aOVhh7NHkcR3o66KrGEzkE?authuser=0&hl=pl&rclk=1"
    },
    {
        "name": "Bar Mleczny Mleczarnia Sienna",
        "id": "0x471ecc8fd99e227b:0x9aee845b853d1a29",
        "latitude": 52.2300212,
        "longitude": 20.993457,
        "url": "https://www.google.com/maps/place/Bar+Mleczny+Mleczarnia+Sienna/data=!4m7!3m6!1s0x471ecc8fd99e227b:0x9aee845b853d1a29!8m2!3d52.2300212!4d20.993457!16s%2Fg%2F1pp2vhmpl!19sChIJeyKe2Y_MHkcRKRo9hVuE7po?authuser=0&hl=pl&rclk=1"
    },
    {
        "name": "Blue Cactus | Fabryka Norblina",
        "id": "0x471ecde29bd5424b:0x9871a5c9b65335c6",
        "latitude": 52.2321227,
        "longitude": 20.9912737,
        "url": "https://www.google.com/maps/place/Blue+Cactus+%7C+Fabryka+Norblina/data=!4m7!3m6!1s0x471ecde29bd5424b:0x9871a5c9b65335c6!8m2!3d52.2321227!4d20.9912737!16s%2Fg%2F11s32wq9jk!19sChIJS0LVm-LNHkcRxjVTtsmlcZg?authuser=0&hl=pl&rclk=1"
    },
    {
        "name": "Madame Thy Asian Cuisine & Bar",
        "id": "0x471ecd3120167b83:0xd63f0f9144666028",
        "latitude": 52.2325373,
        "longitude": 20.9893892,
        "url": "https://www.google.com/maps/place/Madame+Thy+Asian+Cuisine+%26+Bar/data=!4m7!3m6!1s0x471ecd3120167b83:0xd63f0f9144666028!8m2!3d52.2325373!4d20.9893892!16s%2Fg%2F11yghbx81f!19sChIJg3sWIDHNHkcRKGBmRJEPP9Y?authuser=0&hl=pl&rclk=1"
    },
    {
        "name": "Buena Vista Social Food",
        "id": "0x471ecd4c2c8222dd:0xea54b81484aea2eb",
        "latitude": 52.2320171,
        "longitude": 20.9905118,
        "url": "https://www.google.com/maps/place/Buena+Vista+Social+Food/data=!4m7!3m6!1s0x471ecd4c2c8222dd:0xea54b81484aea2eb!8m2!3d52.2320171!4d20.9905118!16s%2Fg%2F11s0wck4bc!19sChIJ3SKCLEzNHkcR66KuhBS4VOo?authuser=0&hl=pl&rclk=1"
    },
    {
        "name": "Baguette Mi",
        "id": "0x471ecda28ad2c495:0xa3656248cfa3df39",
        "latitude": 52.2315583,
        "longitude": 20.9987895,
        "url": "https://www.google.com/maps/place/Baguette+Mi/data=!4m7!3m6!1s0x471ecda28ad2c495:0xa3656248cfa3df39!8m2!3d52.2315583!4d20.9987895!16s%2Fg%2F11nw9tlkl5!19sChIJlcTSiqLNHkcROd-jz0hiZaM?authuser=0&hl=pl&rclk=1"
    },
    {
        "name": "Pita Bros Fabryka Norblina",
        "id": "0x471ecdfe62119a7d:0xde13ab4de79e6f46",
        "latitude": 52.2321488,
        "longitude": 20.9906254,
        "url": "https://www.google.com/maps/place/Pita+Bros+Fabryka+Norblina/data=!4m7!3m6!1s0x471ecdfe62119a7d:0xde13ab4de79e6f46!8m2!3d52.2321488!4d20.9906254!16s%2Fg%2F11sjwp46v3!19sChIJfZoRYv7NHkcRRm-e502rE94?authuser=0&hl=pl&rclk=1"
    },
    {
        "name": "SzaurMafia: Ukrainian street food restaurant | Warszawa",
        "id": "0x471ecda0d49198d7:0x44b9ede710fe4faf",
        "latitude": 52.2329723,
        "longitude": 20.9908705,
        "url": "https://www.google.com/maps/place/SzaurMafia:+Ukrainian+street+food+restaurant+%7C+Warszawa/data=!4m7!3m6!1s0x471ecda0d49198d7:0x44b9ede710fe4faf!8m2!3d52.2329723!4d20.9908705!16s%2Fg%2F11v9jbfjz6!19sChIJ15iR1KDNHkcRr0_-EOftuUQ?authuser=0&hl=pl&rclk=1"
    },
    {
        "name": "BeKeF",
        "id": "0x471eccf1ec25a64d:0x30366752fdfbea4f",
        "latitude": 52.2313679,
        "longitude": 20.9989691,
        "url": "https://www.google.com/maps/place/BeKeF/data=!4m7!3m6!1s0x471eccf1ec25a64d:0x30366752fdfbea4f!8m2!3d52.2313679!4d20.9989691!16s%2Fg%2F11b6_jkkft!19sChIJTaYl7PHMHkcRT-r7_VJnNjA?authuser=0&hl=pl&rclk=1"
    },
    {
        "name": "Nova Wola - Restauracja z kuchnią polską",
        "id": "0x471ecdc2381d5d09:0xb5f17f04bdc5bd9a",
        "latitude": 52.2295414,
        "longitude": 20.9842666,
        "url": "https://www.google.com/maps/place/Nova+Wola+-+Restauracja+z+kuchni%C4%85+polsk%C4%85/data=!4m7!3m6!1s0x471ecdc2381d5d09:0xb5f17f04bdc5bd9a!8m2!3d52.2295414!4d20.9842666!16s%2Fg%2F11lfcq093x!19sChIJCV0dOMLNHkcRmr3FvQR_8bU?authuser=0&hl=pl&rclk=1"
    },
    {
        "name": "Patio & Tulipe - Cocktail Bar & Restaurant",
        "id": "0x471ecda45fcc57bb:0x5dbc14181a3c136d",
        "latitude": 52.2261192,
        "longitude": 20.9891364,
        "url": "https://www.google.com/maps/place/Patio+%26+Tulipe+-+Cocktail+Bar+%26+Restaurant/data=!4m7!3m6!1s0x471ecda45fcc57bb:0x5dbc14181a3c136d!8m2!3d52.2261192!4d20.9891364!16s%2Fg%2F11pyk22c8j!19sChIJu1fMX6TNHkcRbRM8GhgUvF0?authuser=0&hl=pl&rclk=1"
    },
    {
        "name": "Burgerlab",
        "id": "0x471ecda8944497d9:0xbe46b72e2003980",
        "latitude": 52.223554,
        "longitude": 21.016981,
        "url": "https://www.google.com/maps/place/Burgerlab/data=!4m7!3m6!1s0x471ecda8944497d9:0xbe46b72e2003980!8m2!3d52.223554!4d21.016981!16s%2Fg%2F11shkg4h8q!19sChIJ2ZdElKjNHkcRgDkA4nJr5As?authuser=0&hl=pl&rclk=1"
    },
    {
        "name": "Street Restauracja",
        "id": "0x471ecd95c913a4e7:0xb65e289d5b152713",
        "latitude": 52.2313203,
        "longitude": 20.9844122,
        "url": "https://www.google.com/maps/place/Street+Restauracja/data=!4m7!3m6!1s0x471ecd95c913a4e7:0xb65e289d5b152713!8m2!3d52.2313203!4d20.9844122!16s%2Fg%2F11hx_cj9g0!19sChIJ56QTyZXNHkcREycVW50oXrY?authuser=0&hl=pl&rclk=1"
    },
    {
        "name": "Restauracja ukraińska U Sióstr",
        "id": "0x471ecc8de346b609:0x1dc585671613fdf0",
        "latitude": 52.2300171,
        "longitude": 20.9989091,
        "url": "https://www.google.com/maps/place/Restauracja+ukrai%C5%84ska+U+Si%C3%B3str/data=!4m7!3m6!1s0x471ecc8de346b609:0x1dc585671613fdf0!8m2!3d52.2300171!4d20.9989091!16s%2Fg%2F11b8c50k5n!19sChIJCbZG443MHkcR8P0TFmeFxR0?authuser=0&hl=pl&rclk=1"
    },
    {
        "name": "Soul Kitchen",
        "id": "0x471ecceea9d27dd9:0x546318f7fcac603",
        "latitude": 52.2294411,
        "longitude": 21.0149439,
        "url": "https://www.google.com/maps/place/Soul+Kitchen/data=!4m7!3m6!1s0x471ecceea9d27dd9:0x546318f7fcac603!8m2!3d52.2294411!4d21.0149439!16s%2Fg%2F113fx72k_!19sChIJ2X3Sqe7MHkcRA8bKf48xRgU?authuser=0&hl=pl&rclk=1"
    },
    {
        "name": "China Hotpot & Grill",
        "id": "0x471ecd4bea7764f3:0x5ae9c1d891db2329",
        "latitude": 52.2304299,
        "longitude": 20.9877131,
        "url": "https://www.google.com/maps/place/China+Hotpot+%26+Grill/data=!4m7!3m6!1s0x471ecd4bea7764f3:0x5ae9c1d891db2329!8m2!3d52.2304299!4d20.9877131!16s%2Fg%2F11kqr1gzbw!19sChIJ82R36kvNHkcRKSPbkdjB6Vo?authuser=0&hl=pl&rclk=1"
    },
    {
        "name": "Bar Mleczny Lindleya 14",
        "id": "0x471ecde52a4f1d87:0x1c710badaedc3cc1",
        "latitude": 52.2258055,
        "longitude": 20.9965157,
        "url": "https://www.google.com/maps/place/Bar+Mleczny+Lindleya+14/data=!4m7!3m6!1s0x471ecde52a4f1d87:0x1c710badaedc3cc1!8m2!3d52.2258055!4d20.9965157!16s%2Fg%2F11j84txthg!19sChIJhx1PKuXNHkcRwTzcrq0LcRw?authuser=0&hl=pl&rclk=1"
    },
    {
        "name": "Pielmieni BAR - Restauracja W Kuchni",
        "id": "0x471ecda8f7f7f5dd:0x5a16cce789c0aa68",
        "latitude": 52.2274436,
        "longitude": 21.0021174,
        "url": "https://www.google.com/maps/place/Pielmieni+BAR+-+Restauracja+W+Kuchni/data=!4m7!3m6!1s0x471ecda8f7f7f5dd:0x5a16cce789c0aa68!8m2!3d52.2274436!4d21.0021174!16s%2Fg%2F11h3g477y9!19sChIJ3fX396jNHkcRaKrAiefMFlo?authuser=0&hl=pl&rclk=1"
    },
    {
        "name": "Beef and Pepper Steak house",
        "id": "0x471eccf28525442f:0x9f75c42e693c6c72",
        "latitude": 52.2277778,
        "longitude": 21.0083333,
        "url": "https://www.google.com/maps/place/Beef+and+Pepper+Steak+house/data=!4m7!3m6!1s0x471eccf28525442f:0x9f75c42e693c6c72!8m2!3d52.2277778!4d21.0083333!16s%2Fg%2F11btrrsscc!19sChIJL0QlhfLMHkcRcmw8aS7EdZ8?authuser=0&hl=pl&rclk=1"
    },
    {
        "name": "RASOI Restauracja Indyjska",
        "id": "0x471ecc8deefcfddb:0xb2c5c9d69bec7a4d",
        "latitude": 52.2293194,
        "longitude": 20.9997466,
        "url": "https://www.google.com/maps/place/RASOI+Restauracja+Indyjska/data=!4m7!3m6!1s0x471ecc8deefcfddb:0xb2c5c9d69bec7a4d!8m2!3d52.2293194!4d20.9997466!16s%2Fg%2F1pt_f7zcr!19sChIJ2_387o3MHkcRTXrsm9bJxbI?authuser=0&hl=pl&rclk=1"
    },
    {
        "name": "\"Sushi Złota\" Złote Tarasy",
        "id": "0x471ecdb921667e5d:0x915d37e496cf1e38",
        "latitude": 52.2297951,
        "longitude": 21.0031108,
        "url": "https://www.google.com/maps/place/%22Sushi+Z%C5%82ota%22+Z%C5%82ote+Tarasy/data=!4m7!3m6!1s0x471ecdb921667e5d:0x915d37e496cf1e38!8m2!3d52.2297951!4d21.0031108!16s%2Fg%2F11s58klr1b!19sChIJXX5mIbnNHkcROB7PluQ3XZE?authuser=0&hl=pl&rclk=1"
    },
    {
        "name": "N31 Restaurant&Bar",
        "id": "0x471eccf3cb187c51:0xf614ae33090a5dc7",
        "latitude": 52.2288769,
        "longitude": 21.0134836,
        "url": "https://www.google.com/maps/place/N31+Restaurant%26Bar/data=!4m7!3m6!1s0x471eccf3cb187c51:0xf614ae33090a5dc7!8m2!3d52.2288769!4d21.0134836!16s%2Fg%2F11cjkq086f!19sChIJUXwYy_PMHkcRx10KCTOuFPY?authuser=0&hl=pl&rclk=1"
    },
    {
        "name": "Żabka | Prosto z pieca",
        "id": "0x471ecdb15482aabd:0x1e75591ca266c9",
        "latitude": 52.2304146,
        "longitude": 20.9932792,
        "url": "https://www.google.com/maps/place/%C5%BBabka+%7C+Prosto+z+pieca/data=!4m7!3m6!1s0x471ecdb15482aabd:0x1e75591ca266c9!8m2!3d52.2304146!4d20.9932792!16s%2Fg%2F11qg281sns!19sChIJvaqCVLHNHkcRyWaiHFl1HgA?authuser=0&hl=pl&rclk=1"
    },
    {
        "name": "Żarcie Mamuśki",
        "id": "0x471eccf4601677e5:0xc0f05e452ff0ed23",
        "latitude": 52.2326511,
        "longitude": 20.9902204,
        "url": "https://www.google.com/maps/place/%C5%BBarcie+Mamu%C5%9Bki/data=!4m7!3m6!1s0x471eccf4601677e5:0xc0f05e452ff0ed23!8m2!3d52.2326511!4d20.9902204!16s%2Fg%2F11cs1wf3h0!19sChIJ5XcWYPTMHkcRI-3wL0Ve8MA?authuser=0&hl=pl&rclk=1"
    },
    {
        "name": "The Eatery",
        "id": "0x471ed315d621c6d5:0x2cb6e4e910d1c857",
        "latitude": 52.2223082,
        "longitude": 21.0144058,
        "url": "https://www.google.com/maps/place/The+Eatery/data=!4m7!3m6!1s0x471ed315d621c6d5:0x2cb6e4e910d1c857!8m2!3d52.2223082!4d21.0144058!16s%2Fg%2F11n7z7xs3h!19sChIJ1cYh1hXTHkcRV8jREOnktiw?authuser=0&hl=pl&rclk=1"
    },
    {
        "name": "Floor No 2 Restaurant",
        "id": "0x471ecd8b30f2159b:0x2c8718ca6a3d4179",
        "latitude": 52.2279526,
        "longitude": 21.0045587,
        "url": "https://www.google.com/maps/place/Floor+No+2+Restaurant/data=!4m7!3m6!1s0x471ecd8b30f2159b:0x2c8718ca6a3d4179!8m2!3d52.2279526!4d21.0045587!16s%2Fg%2F11j4dd173f!19sChIJmxXyMIvNHkcReUE9asoYhyw?authuser=0&hl=pl&rclk=1"
    },
    {
        "name": "Gaga Restauracja Gruzińska",
        "id": "0x471ecc916e9ed1e1:0x60deeee14e05893a",
        "latitude": 52.2257882,
        "longitude": 20.9940917,
        "url": "https://www.google.com/maps/place/Gaga+Restauracja+Gruzi%C5%84ska/data=!4m7!3m6!1s0x471ecc916e9ed1e1:0x60deeee14e05893a!8m2!3d52.2257882!4d20.9940917!16s%2Fg%2F1vn_xql3!19sChIJ4dGebpHMHkcROokFTuHu3mA?authuser=0&hl=pl&rclk=1"
    },
    {
        "name": "Restauracja Słoik",
        "id": "0x471eccf4a3d86a25:0x9a781cc5fbfdfbc9",
        "latitude": 52.2323389,
        "longitude": 21.011317,
        "url": "https://www.google.com/maps/place/Restauracja+S%C5%82oik/data=!4m7!3m6!1s0x471eccf4a3d86a25:0x9a781cc5fbfdfbc9!8m2!3d52.2323389!4d21.011317!16s%2Fg%2F1pzpxbk7q!19sChIJJWrYo_TMHkcRyfv9-8UceJo?authuser=0&hl=pl&rclk=1"
    },
    {
        "name": "CUD MIÓD",
        "id": "0x471eccf2a96228a9:0x372b1b768ee672a7",
        "latitude": 52.2277225,
        "longitude": 21.0065569,
        "url": "https://www.google.com/maps/place/CUD+MI%C3%93D/data=!4m7!3m6!1s0x471eccf2a96228a9:0x372b1b768ee672a7!8m2!3d52.2277225!4d21.0065569!16s%2Fg%2F1pyckswnh!19sChIJqShiqfLMHkcRp3LmjnYbKzc?authuser=0&hl=pl&rclk=1"
    },
    {
        "name": "Barek z klimatem",
        "id": "0x471ecc92476ad84b:0x4766e0df09618dbf",
        "latitude": 52.2269318,
        "longitude": 20.9992778,
        "url": "https://www.google.com/maps/place/Barek+z+klimatem/data=!4m7!3m6!1s0x471ecc92476ad84b:0x4766e0df09618dbf!8m2!3d52.2269318!4d20.9992778!16s%2Fg%2F1tf5chgv!19sChIJS9hqR5LMHkcRv41hCd_gZkc?authuser=0&hl=pl&rclk=1"
    },
    {
        "name": "Stara Kamienica",
        "id": "0x471eccf474e8855f:0xad42a8e15dc1ce54",
        "latitude": 52.2315639,
        "longitude": 21.015275,
        "url": "https://www.google.com/maps/place/Stara+Kamienica/data=!4m7!3m6!1s0x471eccf474e8855f:0xad42a8e15dc1ce54!8m2!3d52.2315639!4d21.015275!16s%2Fg%2F1pwfx8q85!19sChIJX4XodPTMHkcRVM7BXeGoQq0?authuser=0&hl=pl&rclk=1"
    },
    {
        "name": "Seafood Station Restaurant & Oyster Bar Warszawa",
        "id": "0x471ecd431bb014b7:0x31489dd8d8b3193e",
        "latitude": 52.2266718,
        "longitude": 20.998722,
        "url": "https://www.google.com/maps/place/Seafood+Station+Restaurant+%26+Oyster+Bar+Warszawa/data=!4m7!3m6!1s0x471ecd431bb014b7:0x31489dd8d8b3193e!8m2!3d52.2266718!4d20.998722!16s%2Fg%2F11hktqp9m9!19sChIJtxSwG0PNHkcRPhmz2NidSDE?authuser=0&hl=pl&rclk=1"
    },
    {
        "name": "IndiaGate",
        "id": "0x471ecd509725c921:0xe18da531d8dbb2ff",
        "latitude": 52.2267576,
        "longitude": 20.9997872,
        "url": "https://www.google.com/maps/place/IndiaGate/data=!4m7!3m6!1s0x471ecd509725c921:0xe18da531d8dbb2ff!8m2!3d52.2267576!4d20.9997872!16s%2Fg%2F11j91_9hrb!19sChIJIckll1DNHkcR_7Lb2DGljeE?authuser=0&hl=pl&rclk=1"
    },
    {
        "name": "Portobello Pizza & Pasta",
        "id": "0x471ecd2506d28649:0x1158043306de543d",
        "latitude": 52.2319098,
        "longitude": 20.9998118,
        "url": "https://www.google.com/maps/place/Portobello+Pizza+%26+Pasta/data=!4m7!3m6!1s0x471ecd2506d28649:0x1158043306de543d!8m2!3d52.2319098!4d20.9998118!16s%2Fg%2F11fr407j9v!19sChIJSYbSBiXNHkcRPVTeBjMEWBE?authuser=0&hl=pl&rclk=1"
    },
    {
        "name": "Prodiż Warszawski",
        "id": "0x471eccede4556c9b:0x5c7b909361b84865",
        "latitude": 52.2252187,
        "longitude": 21.0119788,
        "url": "https://www.google.com/maps/place/Prodi%C5%BC+Warszawski/data=!4m7!3m6!1s0x471eccede4556c9b:0x5c7b909361b84865!8m2!3d52.2252187!4d21.0119788!16s%2Fg%2F11c1x2_shb!19sChIJm2xV5O3MHkcRZUi4YZOQe1w?authuser=0&hl=pl&rclk=1"
    },
    {
        "name": "Niewinni Czarodzieje 44",
        "id": "0x471ecdada1c934ed:0x17a81eb906efb44f",
        "latitude": 52.231054,
        "longitude": 21.002281,
        "url": "https://www.google.com/maps/place/Niewinni+Czarodzieje+44/data=!4m7!3m6!1s0x471ecdada1c934ed:0x17a81eb906efb44f!8m2!3d52.231054!4d21.002281!16s%2Fg%2F11kb0zkcs1!19sChIJ7TTJoa3NHkcRT7TvBrkeqBc?authuser=0&hl=pl&rclk=1"
    },
    {
        "name": "Trattoria da Antonio",
        "id": "0x471ecdb7b00c83db:0x54668a226bb58643",
        "latitude": 52.2252465,
        "longitude": 20.9922148,
        "url": "https://www.google.com/maps/place/Trattoria+da+Antonio/data=!4m7!3m6!1s0x471ecdb7b00c83db:0x54668a226bb58643!8m2!3d52.2252465!4d20.9922148!16s%2Fg%2F11j048qvxj!19sChIJ24MMsLfNHkcRQ4a1ayKKZlQ?authuser=0&hl=pl&rclk=1"
    },
    {
        "name": "Parnik Chmielna",
        "id": "0x471ecc8dec4799e5:0x6ab29903858a8cd3",
        "latitude": 52.2295096,
        "longitude": 21.0000207,
        "url": "https://www.google.com/maps/place/Parnik+Chmielna/data=!4m7!3m6!1s0x471ecc8dec4799e5:0x6ab29903858a8cd3!8m2!3d52.2295096!4d21.0000207!16s%2Fg%2F11by3gmml_!19sChIJ5ZlH7I3MHkcR04yKhQOZsmo?authuser=0&hl=pl&rclk=1"
    },
    {
        "name": "La Luce - Restauracja włoska Warszawa",
        "id": "0x471ecd4206b669b7:0xa5806c78e3f86b4b",
        "latitude": 52.2287154,
        "longitude": 21.0098932,
        "url": "https://www.google.com/maps/place/La+Luce+-+Restauracja+w%C5%82oska+Warszawa/data=!4m7!3m6!1s0x471ecd4206b669b7:0xa5806c78e3f86b4b!8m2!3d52.2287154!4d21.0098932!16s%2Fg%2F11g0gdvczn!19sChIJt2m2BkLNHkcRS2v443hsgKU?authuser=0&hl=pl&rclk=1"
    },
    {
        "name": "Bliski Wschód Vege Street Food&Cocktail Bar",
        "id": "0x471ecd57772c7ee1:0xd7db55c74243f7f7",
        "latitude": 52.2321258,
        "longitude": 21.0114763,
        "url": "https://www.google.com/maps/place/Bliski+Wsch%C3%B3d+Vege+Street+Food%26Cocktail+Bar/data=!4m7!3m6!1s0x471ecd57772c7ee1:0xd7db55c74243f7f7!8m2!3d52.2321258!4d21.0114763!16s%2Fg%2F11hsxfgsyy!19sChIJ4X4sd1fNHkcR9_dDQsdV29c?authuser=0&hl=pl&rclk=1"
    },
    {
        "name": "Paros",
        "id": "0x471ecc8ad27fcfb1:0xe8b07f5944d62533",
        "latitude": 52.2277006,
        "longitude": 21.0035296,
        "url": "https://www.google.com/maps/place/Paros/data=!4m7!3m6!1s0x471ecc8ad27fcfb1:0xe8b07f5944d62533!8m2!3d52.2277006!4d21.0035296!16s%2Fg%2F1hc2r1mvq!19sChIJsc9_0orMHkcRMyXWRFl_sOg?authuser=0&hl=pl&rclk=1"
    },
    {
        "name": "Restauracja Gangnam",
        "id": "0x471ecd07ec3d60cd:0xce6fe6a602ed1f1d",
        "latitude": 52.2274881,
        "longitude": 20.9823052,
        "url": "https://www.google.com/maps/place/Restauracja+Gangnam/data=!4m7!3m6!1s0x471ecd07ec3d60cd:0xce6fe6a602ed1f1d!8m2!3d52.2274881!4d20.9823052!16s%2Fg%2F11h9lqxvg7!19sChIJzWA97AfNHkcRHR_tAqbmb84?authuser=0&hl=pl&rclk=1"
    }
]